~Version ---------------------------------------------------
VERS.   2.0 : CWLS log ASCII Standard -VERSION 2.0
WRAP.    NO : One line per depth step
DLM . SPACE : Column Data Section Delimiter
~Well ------------------------------------------------------
STRT.m                     1.0668 : START DEPTH
STOP.m                  1939.1376 : STOP DEPTH
STEP.m                     0.1524 : STEP
NULL.                    -9999.25 : NULL VALUE
COMP. Elmworth Energy Corporation : COMPANY
WELL.               Kennetcook #2 : WELL
FLD .               Windsor Block : FIELD
LOC .     Lat = 45* 12' 34.237" N : LOCATION
PROV.                 Nova Scotia : PROVINCE
CNTY.                        None : COUNTY
STAT.                        None : STATE
CTRY.                          CA : COUNTRY
SRVC.                             : SERVICE COMPANY
DATE.  2016-03-23 16:07:07.010361 : DATE
UWI .     Long = 63* 45'24.460  W : UNIQUE WELL ID
API .                             : API NUMBER
LIC .                       P-129 : 
LONG.                        None : 
TOWN.                 63.75 Deg W : 
RANG.                      PD 176 : 
LATI.                        None : 
GDAT.                        None : 
SECT.                 45.20 Deg N : 
~Curves ----------------------------------------------------
DEPT    .m      : DEPTH
RLA1    .ohm.m  : HRLT Borehole Corrected Resistivity 1
NPHI_LIM.m3/m3  : Thermal Neutron Porosity (matrix Limestone)
RXO_HRLT.ohm.m  : 
DTS     .us/ft  : DTS
DT      .us/ft  : DT
HCAL    .in     : HRCC Cal. Caliper
DPHI_SAN.m3/m3  : Density Porosity (matrix Sandstone)
DRHO    .g/cm3  : HRDD Density Correction
NPHI_SAN.m3/m3  : Thermal Neutron Porosity (matrix Sandstone)
RLA3    .ohm.m  : HRLT Borehole Corrected Resistivity 3
SP      .mV     : SP
RLA5    .ohm.m  : HRLT Borehole Corrected Resistivity 5
NPHI_DOL.m3/m3  : Thermal Neutron Porosity (matrix Dolomite)
CALI    .in     : Caliper
RT_HRLT .ohm.m  : HRLT Computed True Resistivity
DPHI_DOL.m3/m3  : Density Porosity (matrix Dolomite)
DPHI_LIM.m3/m3  : Density Porosity (matrix Limestone)
RLA2    .ohm.m  : HRLT Borehole Corrected Resistivity 2
RLA4    .ohm.m  : HRLT Borehole Corrected Resistivity 4
RXOZ    .ohm.m  : MCFL Standard Resolution Invaded Zone Resistivity
GR      .gAPI   : Gamma-Ray
PEF     .       : Photoelectric Factor
RM_HRLT .ohm.m  : HRLT Mud Resistivity
RHOB    .g/cm3  : Bulk Density
~Params ----------------------------------------------------
EGL.   90.3 : 
EKB.   94.8 : 
TDD. 1935.0 : 
TDL. 1935.0 : 
~Other -----------------------------------------------------
~ASCII -----------------------------------------------------
# ...
     1289.8     339.21    0.09239    -999.25     104.46     65.439    -999.25   -0.04029  0.0035004    0.13869     370.69     51.812        433    0.05064     8.4752     200.19    0.06621   -0.01024     359.78     383.92     202.81     1289.8     79.552     2.9316    0.12704     2.7275
     1289.9     248.89    0.12624    -999.25     101.94     65.526    -999.25    -0.0237 -0.0036469    0.17474     232.06         52     266.05    0.06534     8.4955     260.87     0.0796    0.00424     227.85     232.77     259.56     1289.9     80.104     2.9934    0.12777     2.7027
     1290.1     388.67    0.15361    -999.25     102.71     62.689    -999.25    0.00371  -0.006269    0.20389     480.88     51.938     547.07    0.08151     8.4951     279.07    0.09631    0.02232     454.69     475.42     281.52     1290.1     95.307     2.6165    0.12699     2.6718
     1290.2     411.57    0.15979    -999.25     97.446     62.427    -999.25    0.00275  5.513e-05    0.21039     730.45     51.312     873.58    0.07782     8.5077     459.38    0.11195    0.03925     687.32      721.7     468.38     1290.2     104.59     2.5926    0.12703     2.6429
     1290.4     183.66    0.14273    -999.25     97.446     62.427    -999.25    0.00089  0.0015086    0.19209     202.49     49.625     243.47    0.05677     8.5102     119.78    0.10053    0.02689     206.47     194.87     122.64     1290.4     104.66     2.4851    0.12661      2.664
     1290.5     79.159    0.09528    -999.25     94.186     59.149    -999.25   -0.00891  0.0011724    0.14049     66.092         49     79.687    0.03476     8.5077     58.789    0.09519    0.02111     69.325     64.949     68.405     1290.5     83.431     2.4709    0.12599     2.6739
     1290.7     97.807    0.05116    -999.25     95.009     57.531    -999.25   -0.02083  0.0044041    0.09178     82.714     48.875     100.71    0.02273     8.5144     35.727    0.09103    0.01661     86.383     81.354     60.735     1290.7     65.086     2.4581    0.12615     2.6816
     1290.8     122.81    0.05295    -999.25     95.419     59.483    -999.25   -0.04317  0.0081087    0.09341     106.02     49.438     129.25    0.02004     8.5077     63.684    0.08871    0.01411     109.96     104.86     75.349     1290.8     50.249      2.696    0.12671     2.6859
       1291     99.694     0.0598    -999.25     96.113     59.215    -999.25   -0.04517  0.0075151    0.10134     84.982     49.062     102.14    0.02444     8.4987     82.919    0.08389    0.00888     88.275     84.697      87.97       1291     52.502     2.7223    0.12704     2.6948
     1291.1     121.56    0.08443    -999.25     97.226      60.02    -999.25   -0.04081   0.010511    0.12865     114.97     48.812     135.97    0.03287      8.512     93.449    0.08029      0.005     119.17     118.21     95.405     1291.1     63.465     2.7859    0.12636     2.7015
     1291.3     226.02     0.1137    -999.25     98.314      61.12    -999.25   -0.02274  0.0072418    0.16042     239.67     48.375      285.4    0.04653     8.5127     133.01    0.07935    0.00398     232.98     246.82     134.24     1291.3     81.225     2.4781    0.12587     2.7032
     1291.4      175.6    0.12037    -999.25     97.752     60.628    -999.25     -0.021  0.0071309    0.16793     163.17     48.188     198.17    0.04593     8.5222     129.67    0.08708    0.01234     155.81     169.13     133.01     1291.4     90.191     2.4085    0.12569     2.6889
     1291.6     112.81    0.09333    -999.25     96.944     59.909    -999.25   -0.00741  0.0025063    0.13877     103.46     47.938     122.66     0.0403     8.5629     100.74      0.093    0.01874     98.842     108.87     102.68     1291.6     85.781     2.3369    0.12508     2.6779
     1291.7     102.97    0.08405    -999.25     97.947     60.449    -999.25   -0.00313 0.00080121    0.12843     94.582     47.688     107.94    0.03283     8.5803     77.239    0.09744    0.02354     89.995      101.5     84.007     1291.7     77.522     2.3582    0.12467     2.6697
     1291.9     96.054    0.08172    -999.25     98.516     60.885    -999.25    0.01714 -0.0069162    0.12552      88.17      47.25     100.48    0.03387     8.6034      77.62    0.10055    0.02692     83.575     96.025     82.778     1291.9     71.236     2.2672    0.12423      2.664
       1292     71.868    0.08313    -999.25     98.546     62.014    -999.25     0.0284 -0.0043472    0.12698      71.33     47.438     79.967    0.03364     8.6253     70.555    0.10762    0.03456     67.136     77.711     71.978       1292     64.128     2.1041    0.12405     2.6509
     1292.2     38.571    0.08836    -999.25     99.336     61.308    -999.25    0.04437  -0.007041    0.13239      37.85     46.938     41.033    0.02644     8.6462     58.075    0.11894    0.04681     35.992     41.262     54.854     1292.2     51.411     1.9857    0.12406       2.63
     1292.4     37.315      0.058    -999.25     99.873     61.262    -999.25    0.04582 -0.0049634    0.09904     36.344     46.125     37.461    0.01956     8.6606     76.202    0.13056    0.05937      35.05     39.661     44.646     1292.4     36.355     2.0426    0.12365     2.6085
     1292.5     40.707    0.04934    -999.25     99.862     61.558    -999.25    0.04133   0.001092    0.08926     39.719      45.75     39.595    0.01373     8.6761      50.12    0.13711    0.06647     38.273     42.662      44.59     1292.5     29.528      2.015    0.12318     2.5963
     1292.7     39.404    0.06005    -999.25     99.366     61.391    -999.25    0.03692 -0.00033593    0.10044     39.222      46.25     38.325    0.01448     8.6957     52.587      0.139    0.06851     37.674     41.423     45.008     1292.7     28.285     2.0233    0.12279     2.5929
     1292.8      35.21    0.06384    -999.25     99.261     60.914    -999.25    0.04146 -0.0058975    0.10456     36.688      46.25      34.74     0.0167      8.696     62.499    0.13386    0.06294     34.691     37.451     42.145     1292.8     30.332     1.8932    0.12271     2.6024
       1293      34.84    0.06628    -999.25     99.641      61.84    -999.25    0.04211 -0.0060113    0.10722     38.313       46.5     34.641    0.01871     8.6912     68.611    0.13123    0.06011     34.846     37.337     41.492       1293     29.966     1.8747    0.12251     2.6072
     1293.1     37.535    0.06194    -999.25     99.242     62.359    -999.25    0.04701 -0.0079423    0.10266     41.769         46     37.713    0.01911     8.6936     48.034    0.13403    0.06313     37.262     40.395     41.428     1293.1     26.888     1.9177    0.12235      2.602
     1293.3     35.735    0.05921    -999.25     99.271     61.396    -999.25    0.04646  -0.010682     0.0997      38.93       45.5     35.698    0.01465     8.6834     56.828    0.13484    0.06401      35.71     38.099     42.582     1293.3     25.427     1.8927     0.1225     2.6005
     1293.4     40.934    0.05295    -999.25      99.46     60.991    -999.25     0.0307 -0.0075683    0.09234     42.617      44.75     40.726    0.01181     8.6651     72.287    0.12979    0.05855     40.495     43.176     47.674     1293.4     24.111     2.0297    0.12233     2.6099
     1293.6     51.199    0.04504    -999.25      99.46     60.991    -999.25    0.01781 -0.0055003    0.08347     48.642     45.062     49.015    0.01064     8.6256     63.043    0.12195    0.05007     46.906     51.133     58.044     1293.6     23.548     2.1454    0.12208     2.6244
     1293.7     55.308    0.05002    -999.25     100.36     61.642    -999.25    0.00761 -0.0014817    0.08888     50.143       45.5      53.22    0.01399     8.6031     84.143    0.11955    0.04747     48.374     54.113      70.02     1293.7     22.086     2.3627    0.12215     2.6288
     1293.9     45.612    0.05745    -999.25     100.15      62.46    -999.25    0.01524 -0.0023099    0.09774     42.185     45.812     47.052    0.01916     8.5668     81.205    0.12427    0.05257     40.623     45.782     61.253     1293.9     24.571     2.3278    0.12323     2.6201
