~Version ---------------------------------------------------
VERS.   2.0 : CWLS log ASCII Standard -VERSION 2.0
WRAP.    NO : One line per depth step
DLM . SPACE : Column Data Section Delimiter
~Well ------------------------------------------------------
STRT.m                     1.0668 : START DEPTH
STOP.m                  1939.1376 : STOP DEPTH
STEP.m                     0.1524 : STEP
NULL.                    -9999.25 : NULL VALUE
COMP. Elmworth Energy Corporation : COMPANY
WELL.               Kennetcook #2 : WELL
FLD .               Windsor Block : FIELD
LOC .     Lat = 45* 12' 34.237" N : LOCATION
PROV.                 Nova Scotia : PROVINCE
CNTY.                        None : COUNTY
STAT.                        None : STATE
CTRY.                          CA : COUNTRY
SRVC.                             : SERVICE COMPANY
DATE.  2016-03-23 16:07:07.010361 : DATE
UWI .     Long = 63* 45'24.460  W : UNIQUE WELL ID
API .                             : API NUMBER
LIC .                       P-129 : 
LONG.                        None : 
TOWN.                 63.75 Deg W : 
RANG.                      PD 176 : 
LATI.                        None : 
GDAT.                        None : 
SECT.                 45.20 Deg N : 
~Curves ----------------------------------------------------
DEPT    .m      : DEPTH
RLA1    .ohm.m  : HRLT Borehole Corrected Resistivity 1
NPHI_LIM.m3/m3  : Thermal Neutron Porosity (matrix Limestone)
RXO_HRLT.ohm.m  : 
DTS     .us/ft  : DTS
DT      .us/ft  : DT
HCAL    .in     : HRCC Cal. Caliper
DPHI_SAN.m3/m3  : Density Porosity (matrix Sandstone)
DRHO    .g/cm3  : HRDD Density Correction
NPHI_SAN.m3/m3  : Thermal Neutron Porosity (matrix Sandstone)
RLA3    .ohm.m  : HRLT Borehole Corrected Resistivity 3
SP      .mV     : SP
RLA5    .ohm.m  : HRLT Borehole Corrected Resistivity 5
NPHI_DOL.m3/m3  : Thermal Neutron Porosity (matrix Dolomite)
CALI    .in     : Caliper
RT_HRLT .ohm.m  : HRLT Computed True Resistivity
DPHI_DOL.m3/m3  : Density Porosity (matrix Dolomite)
DPHI_LIM.m3/m3  : Density Porosity (matrix Limestone)
RLA2    .ohm.m  : HRLT Borehole Corrected Resistivity 2
RLA4    .ohm.m  : HRLT Borehole Corrected Resistivity 4
RXOZ    .ohm.m  : MCFL Standard Resolution Invaded Zone Resistivity
GR      .gAPI   : Gamma-Ray
PEF     .       : Photoelectric Factor
RM_HRLT .ohm.m  : HRLT Mud Resistivity
RHOB    .g/cm3  : Bulk Density
~Params ----------------------------------------------------
EGL.   90.3 : 
EKB.   94.8 : 
TDD. 1935.0 : 
TDL. 1935.0 : 
~Other -----------------------------------------------------
~ASCII -----------------------------------------------------
# ...
     1806.1     52.642     0.0698    -999.25     98.231     63.343    -999.25    0.03774 -0.00090986    0.11162      35.94     53.375     38.998    0.01682     8.3511     4.7267    0.17042     0.1025     36.891     37.859     5.1681     1806.1     33.191     2.2601    0.13698     2.5347
     1806.2     50.094    0.06617    -999.25     98.017       64.3    -999.25     0.0362 -0.0010866    0.10759     34.263     53.938     36.945    0.01863      8.358     3.9739    0.16039    0.09165     36.494     35.861     4.4501     1806.2      32.46     2.1669     0.1365     2.5533
     1806.4     51.058    0.07178    -999.25     96.718     64.749    -999.25    0.02753  0.0024422    0.11409     36.757     54.125       39.3    0.02087     8.3451     4.1295    0.14632    0.07643     40.234      37.69     4.7689     1806.4     30.712     2.0472    0.13101     2.5793
     1806.5     53.921    0.06822    -999.25     93.604     61.004    -999.25    0.01745  0.0076495    0.11055     40.004     54.375     42.637    0.02415     8.2708     5.0582    0.14083    0.07049     45.105     40.336     6.2771     1806.5     30.785     2.0052    0.12548     2.5895
     1806.7     52.289     0.0804    -999.25     94.206     60.249    -999.25    0.01224  0.0053536    0.12406     38.108     54.062     39.945    0.02766      8.152     6.2713    0.12131    0.04937     39.763      37.36     7.4307     1806.7     33.536     1.9968    0.12445     2.6256
     1806.9     56.734    0.09171    -999.25     94.158     60.922    -999.25    0.01042  0.0049392    0.13648     42.879         54     45.191    0.02646     8.1252     10.308    0.11278    0.04014     43.337      42.59     11.345     1806.9     34.544     1.9784     0.1223     2.6414
       1807     82.082    0.07913    -999.25     95.875      60.87    -999.25    0.00728  0.0054254    0.12321      89.99     54.125     95.999    0.02632     8.1001     6.7788    0.14896    0.07928     92.403     90.414     6.9435       1807     37.906     2.0533    0.12188     2.5744
     1807.2     65.634    0.07497    -999.25     99.767     62.299    -999.25    0.01602  0.0039238    0.11859     48.832     54.125     51.335    0.02398     8.0734     3.2935    0.21409    0.14974     52.232     49.447     3.6205     1807.2     37.222     2.1577     0.1233     2.4539
     1807.3     58.089    0.09335    -999.25     101.22     63.132    -999.25    0.02522 -0.00057465    0.13778     36.004     54.312     38.394    0.02444     8.0734     2.1416     0.2532    0.19206     37.735     37.314     2.3042     1807.3     38.245     2.3136    0.12983     2.3816
     1807.5     59.332    0.09125    -999.25     100.76     62.682    -999.25    0.03343 -0.0018932    0.13547     35.001     54.375     36.804    0.02982     8.0725        1.8    0.24162    0.17953     36.521     36.009     1.9209     1807.5     32.512     2.2683    0.13769      2.403
     1807.6     62.765    0.09305    -999.25     99.306     60.798    -999.25    0.02854 -0.0011716    0.13739     38.709     54.875     40.831    0.03311     8.0734     1.5393    0.18645    0.11984     41.793     39.563     1.6088     1807.6     32.857     2.2258    0.13518     2.5051
     1807.8     75.127    0.07467    -999.25     94.205     60.247    -999.25    0.01713 -0.0019118    0.11783     52.515     55.312     56.033    0.02942     8.0499     1.8278    0.13285    0.06186      59.99     53.808     1.8955     1807.8     36.602     2.0577    0.12811     2.6042
     1807.9     116.12    0.07524    -999.25     92.731     59.368    -999.25    0.00081 -0.00045758    0.11861     120.45         55     130.62    0.02795     8.0434       3.26    0.08398    0.00899     150.35     123.97     3.2121     1807.9     46.721     2.0996    0.12227     2.6946
     1808.1     133.24    0.06803    -999.25     92.612     58.567    -999.25   -0.00348    0.00143    0.11109     139.93     54.438     148.74     0.0245     8.0391     18.806    0.07329   -0.00258     176.85        140     20.533     1808.1     52.348     2.1953    0.11506     2.7144
     1808.2     159.56    0.07209    -999.25     91.458     58.693    -999.25    0.00153  0.0022882     0.1154     216.42     54.562     231.01    0.01896     8.0391     164.14    0.09294    0.01868     233.92     218.56     169.53     1808.2     55.693     2.3035    0.11712     2.6781
     1808.4      156.6    0.09039    -999.25     91.689     60.508    -999.25    0.01109 0.00085372    0.13454     201.97       54.5     217.99     0.0201     8.0508     5.6589    0.12256    0.05072     201.24     199.31     5.6137     1808.4     54.524     2.2685    0.12549     2.6233
     1808.5     102.09    0.07667    -999.25     92.968     61.061    -999.25    0.00312  0.0085214    0.11924     76.426     54.812     80.707    0.02191     8.0483     2.0991      0.149    0.07933     76.342     75.095     2.0934     1808.5     50.358     2.1892    0.13195     2.5743
     1808.7     98.699    0.07491    -999.25     96.239     60.437    -999.25     0.0003   0.012838    0.11719     63.744     55.125     69.091    0.02816     8.0558     1.6112    0.14429    0.07423     66.189     65.531     1.6035     1808.7     45.493     2.1497    0.13487     2.5831
     1808.8     111.26    0.09073    -999.25     95.644     58.739    -999.25   -0.00079    0.01237     0.1351     86.968     54.688     95.014    0.03534      8.065     2.3871    0.11574    0.04335     94.043     87.875     2.3233     1808.8     45.493     2.2179    0.13222     2.6359
       1809     116.77    0.08733    -999.25     93.299     59.043    -999.25    0.00706   0.008324    0.13203     96.621     54.188      107.6    0.03603     8.0683      5.604    0.08646    0.01166     112.44        100     6.3364       1809     51.048     2.2101    0.12311     2.6901
     1809.1     153.12    0.07947    -999.25     91.877     59.535    -999.25    -0.0032   0.007352    0.12346     191.61     54.438     211.64    0.03089       8.07     26.254     0.0858    0.01095     225.37      200.9     30.941     1809.1     60.371     2.2518    0.11835     2.6913
     1809.3     154.91     0.0742    -999.25     91.999     57.921    -999.25   -0.01124  0.0048202    0.11762     168.57     54.812     184.38    0.02451     8.0683     131.72    0.09724    0.02333     176.63     166.55     132.69     1809.3     62.344     2.2884    0.12185     2.6701
     1809.4     129.01    0.07759    -999.25     92.028     56.943    -999.25   -0.01198   0.002297    0.12083     104.13     54.312     111.27    0.02379     8.0819     133.89    0.10785    0.03481     105.72     102.76     135.32     1809.4     60.955     2.3735    0.12414     2.6505
     1809.6     144.53    0.08226    -999.25     91.679     57.813    -999.25   -0.00123 0.00038201    0.12562     130.88       53.5     137.57     0.0256     8.1227     64.296    0.10109     0.0275     127.47     126.67         80     1809.6     52.468     2.3546    0.12528      2.663
     1809.8     109.87    0.07955    -999.25     91.112     57.365    -999.25    0.00644 -0.0018603    0.12256     83.671     53.812      87.27    0.02743     8.1419      32.63    0.10223    0.02873     82.383     79.259     34.893     1809.8     49.179     2.2742    0.12559     2.6609
     1809.9     117.71    0.06939    -999.25     90.054     57.532    -999.25   -0.00051 -0.0023981    0.11161     84.009     54.125     87.299    0.02393     8.1562     33.974    0.09491    0.02081     85.337     83.204     36.174     1809.9     51.518     2.3394    0.12459     2.6744
     1810.1      173.7    0.06446    -999.25     89.486     55.954    -999.25     0.0018 -0.0047205     0.1065     180.19      54.75     193.86    0.02457     8.1754     49.243    0.09953    0.02581     184.97     178.09     53.155     1810.1     54.787      2.313    0.12461     2.6659
     1810.2     140.49    0.07883    -999.25     90.848     57.052    -999.25    0.00116 -0.0071647    0.12196     121.73      54.25     127.82    0.02358     8.1788     130.04    0.10207    0.02856     124.91     118.22     129.71     1810.2     54.787     2.3969    0.12107     2.6612
