~Version ---------------------------------------------------
VERS.   2.0 : CWLS log ASCII Standard -VERSION 2.0
WRAP.    NO : One line per depth step
DLM . SPACE : Column Data Section Delimiter
~Well ------------------------------------------------------
STRT.m                     1.0668 : START DEPTH
STOP.m                  1939.1376 : STOP DEPTH
STEP.m                     0.1524 : STEP
NULL.                    -9999.25 : NULL VALUE
COMP. Elmworth Energy Corporation : COMPANY
WELL.               Kennetcook #2 : WELL
FLD .               Windsor Block : FIELD
LOC .     Lat = 45* 12' 34.237" N : LOCATION
PROV.                 Nova Scotia : PROVINCE
CNTY.                        None : COUNTY
STAT.                        None : STATE
CTRY.                          CA : COUNTRY
SRVC.                             : SERVICE COMPANY
DATE.  2016-03-23 16:07:07.010361 : DATE
UWI .     Long = 63* 45'24.460  W : UNIQUE WELL ID
API .                             : API NUMBER
LIC .                       P-129 : 
LONG.                        None : 
TOWN.                 63.75 Deg W : 
RANG.                      PD 176 : 
LATI.                        None : 
GDAT.                        None : 
SECT.                 45.20 Deg N : 
~Curves ----------------------------------------------------
DEPT    .m      : DEPTH
RLA1    .ohm.m  : HRLT Borehole Corrected Resistivity 1
NPHI_LIM.m3/m3  : Thermal Neutron Porosity (matrix Limestone)
RXO_HRLT.ohm.m  : 
DTS     .us/ft  : DTS
DT      .us/ft  : DT
HCAL    .in     : HRCC Cal. Caliper
DPHI_SAN.m3/m3  : Density Porosity (matrix Sandstone)
DRHO    .g/cm3  : HRDD Density Correction
NPHI_SAN.m3/m3  : Thermal Neutron Porosity (matrix Sandstone)
RLA3    .ohm.m  : HRLT Borehole Corrected Resistivity 3
SP      .mV     : SP
RLA5    .ohm.m  : HRLT Borehole Corrected Resistivity 5
NPHI_DOL.m3/m3  : Thermal Neutron Porosity (matrix Dolomite)
CALI    .in     : Caliper
RT_HRLT .ohm.m  : HRLT Computed True Resistivity
DPHI_DOL.m3/m3  : Density Porosity (matrix Dolomite)
DPHI_LIM.m3/m3  : Density Porosity (matrix Limestone)
RLA2    .ohm.m  : HRLT Borehole Corrected Resistivity 2
RLA4    .ohm.m  : HRLT Borehole Corrected Resistivity 4
RXOZ    .ohm.m  : MCFL Standard Resolution Invaded Zone Resistivity
GR      .gAPI   : Gamma-Ray
PEF     .       : Photoelectric Factor
RM_HRLT .ohm.m  : HRLT Mud Resistivity
RHOB    .g/cm3  : Bulk Density
~Params ----------------------------------------------------
EGL.   90.3 : 
EKB.   94.8 : 
TDD. 1935.0 : 
TDL. 1935.0 : 
~Other -----------------------------------------------------
~ASCII -----------------------------------------------------
# ...
      517.4     17.931     0.1077    -999.25     119.79     67.158    -999.25   -0.00266  0.0069495    0.15491     19.697      14.25      22.62    0.06051     8.6183     24.007    0.08828    0.01363     18.403     21.617     22.298      517.4     106.61     3.2536    0.13704     2.6867
     517.55     13.398    0.14296    -999.25     123.93     70.176    -999.25    0.00228   0.007063    0.19265     14.421     13.688     16.408    0.07337     8.6382     15.985        0.1    0.02632      13.65     15.847     16.475     517.55     113.22     3.1243    0.13706      2.665
      517.7     11.485    0.15326    -999.25     121.42     70.093    -999.25    0.01245  0.0053364     0.2036     12.368     12.875     13.851    0.09207      8.664     12.476    0.11173    0.03901      11.64     13.495     13.358      517.7     118.81     3.0536    0.13673     2.6433
     517.86     10.821    0.16391    -999.25     123.81     70.439    -999.25    0.02139  0.0055158    0.21478     11.629         12       12.8    0.09875     8.6826     11.227     0.1241    0.05239     10.972     12.574     11.831     517.86     120.36     2.8335    0.13632     2.6204
     518.01      9.797    0.16526    -999.25     123.44     70.492    -999.25    0.03157  0.0035579    0.21618     10.636         12     11.587    0.10725     8.6987      10.29    0.12588    0.05431     10.121     11.445     10.853     518.01     119.37      2.963    0.13637     2.6171
     518.16     9.2956    0.16022    -999.25      124.1     70.726    -999.25    0.04798 0.00019747    0.21091     10.242         12     11.014    0.10061     8.7068     10.048    0.12707     0.0556     9.7756     10.945     10.654     518.16      116.6     2.9264    0.13603     2.6149
     518.31     9.8831    0.15694    -999.25      124.8     71.358    -999.25    0.04661  0.0028583    0.20749     11.108     12.375     11.771    0.10069     8.7184     9.6976    0.12872    0.05738     10.503     11.702     10.193     518.31     113.22     2.9819    0.13556     2.6119
     518.46     9.2806    0.15502    -999.25      124.6     71.236    -999.25    0.04576  0.0042046    0.20547     10.563     12.188     11.061    0.10044     8.7393     9.4804    0.13313    0.06216     9.8231     10.963     10.052     518.46     111.47     3.0601    0.13563     2.6037
     518.62     8.8461    0.16141    -999.25     123.79     71.218    -999.25    0.04442  0.0049962    0.21214     10.259     12.125     10.672    0.09765      8.742      8.998    0.13728    0.06664     9.4009     10.485     9.5921     518.62     107.23     3.0669    0.13571      2.596
     518.77     8.7652    0.17326    -999.25     123.09     71.417    -999.25    0.04395  0.0068663     0.2245     10.161     12.438     10.607    0.09707     8.7462     9.0628    0.13928    0.06881     9.3567     10.382     9.6873     518.77     110.84     3.0718    0.13587     2.5923
     518.92     9.2884    0.16023    -999.25     122.55     71.332    -999.25    0.05072  0.0045617    0.21093      10.64     13.188     11.216    0.08551     8.7393     9.2834    0.14239    0.07218     9.8955     10.934     9.8525     518.92     112.66     2.9646    0.13575     2.5866
     519.07     10.523    0.14537    -999.25     121.82     70.967    -999.25    0.04421  0.0056804    0.19531     11.873     13.438      12.72    0.08496     8.7551     10.258    0.14403    0.07395      11.16     12.287     10.816     519.07     112.19     3.0083    0.13523     2.5836
     519.23     11.401    0.13963    -999.25      120.1     70.766    -999.25    0.04047  0.0059713    0.18927     12.592      13.25     13.724    0.08593     8.7462     10.838    0.14153    0.07125     11.995     13.081     11.303     519.23     111.13     3.1168    0.13528     2.5882
     519.38     10.944    0.15234    -999.25     119.97     70.158    -999.25    0.04712  0.0040243    0.20262      11.73     13.312     12.989    0.09779     8.7126     11.095    0.14394    0.07385     11.266     12.222     11.628     519.38     107.76     3.1176    0.13592     2.5837
     519.53     11.069    0.15689    -999.25     119.02     69.227    -999.25    0.05415  0.0020539    0.20743     11.607     14.312     13.038    0.10202     8.6826     11.168    0.14332    0.07318      11.15     12.081     11.599     519.53     111.18      3.065    0.13632     2.5849
     519.68     12.733     0.1479    -999.25     114.68     67.301    -999.25    0.05156  0.0014703    0.19801     13.165     15.312     15.049    0.09214     8.6686     11.906    0.14135    0.07105     12.674     13.727     12.258     519.68     110.39      3.059     0.1368     2.5885
     519.84     15.715    0.14443    -999.25     113.85     66.335    -999.25    0.03111 0.00098342    0.19434     15.979     15.938     18.561    0.07785     8.6344     13.921    0.13221    0.06117     15.389     16.695     14.259     519.84     114.75      3.007    0.13726     2.6054
     519.99     20.192    0.13064    -999.25        113     66.066    -999.25    0.00718  0.0018612    0.17973     20.382      16.75     24.107     0.0699     8.6341     18.781    0.12202    0.05014     19.952     21.391     19.429     519.99     115.01      3.082    0.13768     2.6243
     520.14     31.248    0.13205    -999.25     112.07     65.845    -999.25   -0.00684  0.0018237    0.18117     31.331     17.438     38.218    0.07176     8.6006     27.718    0.11138    0.03863     30.646     33.438     28.597     520.14     119.37     3.1028    0.13769     2.6439
     520.29     39.673    0.13824    -999.25     112.25     64.649    -999.25   -0.02233  0.0011377    0.18773     38.722         18     47.289    0.08022     8.5645     40.671    0.09404    0.01987     38.073     40.827     42.343     520.29     119.98     3.2158     0.1382      2.676
     520.45     38.005    0.15331    -999.25     112.25     64.649    -999.25    -0.0375  0.0010814    0.20363     36.206     18.688     44.045     0.0833     8.5269     42.979    0.07476   -0.00099     35.618     37.867      44.62     520.45     117.59     3.4462     0.1391     2.7117
      520.6     40.707     0.1411    -999.25     113.05     65.552    -999.25   -0.04808  0.0056508     0.1908       38.5     19.312     46.668    0.07541     8.5052      43.06    0.05706   -0.02014     37.982     39.887     44.241      520.6     115.54     3.6097    0.13944     2.7444
     520.75     43.965    0.12761    -999.25     113.71     65.893    -999.25   -0.05092  0.0079431    0.17649     41.922       19.5     50.582    0.07474     8.5081     47.688    0.04907   -0.02879     41.387      43.14     49.111     520.75     116.93     4.0869    0.13959     2.7592
      520.9     34.364    0.13392    -999.25     114.22     66.051    -999.25   -0.03746  0.0077394    0.18319     33.348      18.75     39.848    0.08197     8.5252     43.184    0.05638   -0.02088     32.709     33.944     45.108      520.9      123.7     3.8354    0.13963     2.7457
     521.06     26.274    0.15183    -999.25     114.55     66.593    -999.25    -0.0336   0.010601     0.2021     25.575     18.875     29.973    0.10599      8.543     35.109    0.06887   -0.00737     25.348     25.585     36.276     521.06     130.16     3.7084    0.13968     2.7226
     521.21     25.664    0.17118    -999.25      114.5     66.736    -999.25    -0.0282   0.013643    0.22234     25.116     19.438     29.406    0.11222     8.5645     28.225    0.07899    0.00358     25.381     25.191     28.973     521.21     136.67     3.4561    0.13923     2.7039
     521.36     23.299    0.17479    -999.25     114.34     66.964    -999.25    -0.0254   0.013138    0.22611     22.727     19.438     26.557    0.10091     8.5736     25.477    0.08599    0.01116     23.299     22.944      26.04     521.36     135.83     3.3468    0.13887     2.6909
     521.51     20.255    0.14574    -999.25     112.12     66.553    -999.25   -0.01969   0.012872     0.1957      19.89     18.688     22.932    0.07915     8.6049     23.736    0.09205    0.01771     20.046     19.956     24.313     521.51     127.78     3.1731    0.13862     2.6797
