~Version ---------------------------------------------------
VERS.   2.0 : CWLS log ASCII Standard -VERSION 2.0
WRAP.    NO : One line per depth step
DLM . SPACE : Column Data Section Delimiter
~Well ------------------------------------------------------
STRT.m                     1.0668 : START DEPTH
STOP.m                  1939.1376 : STOP DEPTH
STEP.m                     0.1524 : STEP
NULL.                    -9999.25 : NULL VALUE
COMP. Elmworth Energy Corporation : COMPANY
WELL.               Kennetcook #2 : WELL
FLD .               Windsor Block : FIELD
LOC .     Lat = 45* 12' 34.237" N : LOCATION
PROV.                 Nova Scotia : PROVINCE
CNTY.                        None : COUNTY
STAT.                        None : STATE
CTRY.                          CA : COUNTRY
SRVC.                             : SERVICE COMPANY
DATE.  2016-03-23 16:07:07.010361 : DATE
UWI .     Long = 63* 45'24.460  W : UNIQUE WELL ID
API .                             : API NUMBER
LIC .                       P-129 : 
LONG.                        None : 
TOWN.                 63.75 Deg W : 
RANG.                      PD 176 : 
LATI.                        None : 
GDAT.                        None : 
SECT.                 45.20 Deg N : 
~Curves ----------------------------------------------------
DEPT    .m      : DEPTH
RLA1    .ohm.m  : HRLT Borehole Corrected Resistivity 1
NPHI_LIM.m3/m3  : Thermal Neutron Porosity (matrix Limestone)
RXO_HRLT.ohm.m  : 
DTS     .us/ft  : DTS
DT      .us/ft  : DT
HCAL    .in     : HRCC Cal. Caliper
DPHI_SAN.m3/m3  : Density Porosity (matrix Sandstone)
DRHO    .g/cm3  : HRDD Density Correction
NPHI_SAN.m3/m3  : Thermal Neutron Porosity (matrix Sandstone)
RLA3    .ohm.m  : HRLT Borehole Corrected Resistivity 3
SP      .mV     : SP
RLA5    .ohm.m  : HRLT Borehole Corrected Resistivity 5
NPHI_DOL.m3/m3  : Thermal Neutron Porosity (matrix Dolomite)
CALI    .in     : Caliper
RT_HRLT .ohm.m  : HRLT Computed True Resistivity
DPHI_DOL.m3/m3  : Density Porosity (matrix Dolomite)
DPHI_LIM.m3/m3  : Density Porosity (matrix Limestone)
RLA2    .ohm.m  : HRLT Borehole Corrected Resistivity 2
RLA4    .ohm.m  : HRLT Borehole Corrected Resistivity 4
RXOZ    .ohm.m  : MCFL Standard Resolution Invaded Zone Resistivity
GR      .gAPI   : Gamma-Ray
PEF     .       : Photoelectric Factor
RM_HRLT .ohm.m  : HRLT Mud Resistivity
RHOB    .g/cm3  : Bulk Density
~Params ----------------------------------------------------
EGL.   90.3 : 
EKB.   94.8 : 
TDD. 1935.0 : 
TDL. 1935.0 : 
~Other -----------------------------------------------------
~ASCII -----------------------------------------------------
# ...
     645.41     17.662    0.05182    -999.25     100.45     50.238    -999.25     0.2341   0.032153    0.09124     247.95     39.062      16646    0.00979     8.9921     25.579    0.21237    0.14788     49.025     1454.3     27.452     645.41     74.947      2.753    0.13977     2.4571
     645.57     9.8808    0.05789    -999.25     95.246     48.368    -999.25    0.29687   0.025536    0.09801     255.99     39.188      15153    0.00921      9.315     11.848    0.22147    0.15773     26.071     1254.1      11.35     645.57     70.343     2.7906    0.13039     2.4403
     645.72     6.3082      0.044    -999.25     99.529     53.802    -999.25    0.37787   0.013197    0.08406     383.44     39.312      17427    0.01128     9.4737     11.339     0.2546    0.19357     31.092     1446.4     10.334     645.72     69.735     2.7707    0.11725      2.379
     645.87     3.8509    0.07036    -999.25     84.837      49.02    -999.25    0.51739 -0.0022461    0.11437     418.75     39.812      21979    0.02239     9.9361     10.764    0.30614    0.24933     42.353       1455     10.425     645.87     65.788     2.3795    0.10409     2.2836
     646.02     4.6646    0.20756    -999.25     79.633     40.583    -999.25    0.71375  -0.019425    0.26005     447.69       41.5      22234    0.06945     11.255    0.99474    0.40616    0.35754     58.413     1331.9    0.93204     646.02     57.409     1.7289    0.09347     2.0986
     646.18     11.132    0.34046    -999.25     82.359     44.267    -999.25    0.84058  -0.019876    0.39368     836.07     42.188      16684    0.20161     12.762    0.33859    0.55713    0.52087     190.37     1634.3    0.31278     646.18     46.235     1.3869    0.08322     1.8193
     646.33     15.403    0.39169    -999.25     79.892     45.424    -999.25    0.90397  -0.025671     0.4437      11001     41.688      32384    0.32569     14.242    0.21232    0.69496    0.66998     248.54     3842.1    0.18898     646.33      33.08     1.4421    0.08077     1.5643
     646.48     5.3202    0.40774    -999.25     78.109     43.772    -999.25    0.84251  -0.035735    0.45994      1e+05         41      24054    0.20713     13.048    0.25285     0.6181    0.58683     100.98      1e+05    0.19512     646.48     27.206     1.8106    0.08651     1.7065
     646.63     3.7234    0.08214    -999.25     88.387     48.831    -999.25    0.68898  -0.052345    0.12653      1e+05     41.125      21906     0.0461     11.219    0.40642     0.3241    0.26876     54.492      1e+05    0.33724     646.63     19.441     2.0233    0.09231     2.2504
     646.79      7.366   -0.02362    -999.25     99.423     55.587    -999.25    0.34671   -0.02979    0.00749      13138      40.75      1e+05   -0.00726     8.8692     1.1335    0.04494   -0.03325     58.449      1e+05     1.0969     646.79     14.942     2.6851    0.09822     2.7669
     646.94     21.464   -0.00283    -999.25     105.93     61.494    -999.25    0.02784  0.0065001    0.02852     620.29      39.75      1e+05   -0.01171     8.7552     1580.9    -0.0007   -0.08263     57.948      26057     1665.2     646.94     9.6066     4.3176    0.10288     2.8513
     647.09     14.074    0.06467    -999.25     113.77     67.401    -999.25   -0.06831   0.032439     0.1012     336.88      38.75      1e+05   -0.00534     8.9043     2.0192    0.15039    0.08083     50.667     2027.6     1.9312     647.09     9.4663     4.0754    0.11279     2.5718
     647.24     12.505    0.08164    -999.25     111.42     67.401    -999.25    0.06071   0.019069    0.11963     371.67     39.375      1e+05   -0.00137     9.9387    0.84184     0.3194    0.26368     89.354     985.43    0.77016     647.24     10.302     3.9586     0.1135     2.2591
      647.4     13.114    0.02526    -999.25     114.17      62.98    -999.25    0.26068  0.0068364    0.05716     245.47     39.875      1e+05   -0.00421     10.511    0.42893    0.43922    0.39331     66.867     995.03    0.38643      647.4     13.518     3.6345    0.10879     2.0374
     647.55     15.297    0.01092    -999.25     116.91     66.158    -999.25    0.47773 -0.0040805    0.04154     439.82     41.312      1e+05   -0.00348     11.061    0.38449     0.4805    0.43797     121.86     1856.3    0.33901     647.55     19.295     3.0465    0.10704     1.9611
      647.7     15.033    0.01288    -999.25     107.95     62.706    -999.25    0.55408   0.010135    0.04455     254.63     41.125      1e+05     0.0003      10.54    0.46112    0.39089    0.34102     99.049     2395.5    0.41425      647.7     27.197      2.916    0.10191     2.1269
     647.85      12.24    0.02875    -999.25     102.12     53.904    -999.25    0.53495   0.028193    0.06353     238.31     40.938      1e+05   -0.00168     10.516     0.7122    0.30644    0.24966     70.381       2672    0.70921     647.85     36.406     2.8023    0.09619     2.2831
        648     8.3331    0.02874    -999.25     98.112     51.377    -999.25    0.42798   0.051824    0.06377     145.97      41.75      79533   -0.00516     10.532     1.1245    0.27557    0.21626     32.387     2350.7     1.1003        648     38.687     3.3365    0.09132     2.3402
     648.16     4.9285    0.01789    -999.25     99.771     51.834    -999.25    0.37568   0.068779    0.05179     103.11     43.188      1e+05   -0.01051     10.847    0.69342    0.38902      0.339     15.305     1814.6    0.63602     648.16     37.737     3.5074    0.08851     2.1303
     648.31     3.4624    0.02013    -999.25     106.46     57.935    -999.25    0.49041   0.039226    0.05321     147.65      42.25      1e+05   -0.01197     11.444    0.39142    0.51343     0.4736      13.26     2185.2    0.35966     648.31     28.387     3.2556    0.08667     1.9001
     648.46     3.4456    0.03409    -999.25     81.632     41.753    -999.25    0.64854  0.0030082    0.06791     328.94     41.875      1e+05   -0.00234     12.753    0.27267    0.63234    0.60224     21.051     3939.3    0.22576     648.46     23.066     2.7109    0.08381     1.6802
     648.61     3.2019    0.05455    -999.25     119.83     68.428    -999.25    0.77099 -0.0053837    0.09118     486.89     38.375      1e+05    0.00865     13.446    0.19462    0.67664    0.65016     36.843     9292.2    0.18848     648.61     19.631     2.2614    0.07955     1.5982
     648.77     4.0761    0.07254    -999.25     126.52     78.547    -999.25    0.84087   -0.01729    0.11183     457.29     37.562      1e+05    0.01475     14.183    0.19865    0.63151    0.60135      54.36      20103    0.19212     648.77     20.467     2.0598    0.07715     1.6817
     648.92     4.6619    0.03759    -999.25     120.99     78.682    -999.25    0.86908  -0.024694    0.07432     339.22       36.5      1e+05    0.00965     14.222    0.21615    0.54813    0.51114     42.858       7980    0.20903     648.92     20.239     2.0351     0.0772      1.836
     649.07     4.1622    0.04671    -999.25      126.2     82.229    -999.25    0.86066  -0.021525    0.08255     263.14     36.688      1e+05    0.00938     13.914    0.25805    0.45108    0.40614     25.679       3376    0.24974     649.07     20.093     2.1731    0.08109     2.0155
     649.22     4.0551    0.04326    -999.25     113.81     74.299    -999.25    0.79184  -0.017219    0.07871     149.51     37.688      48130    0.01289      12.04    0.35868    0.31886     0.2631     15.593     2045.1     0.3225     649.22     23.438     2.3108    0.08804     2.2601
     649.38     6.0377    0.02693    -999.25     114.36     71.326    -999.25    0.66189  -0.016752    0.06214     116.57     37.438       4713    0.01512      11.49    0.73858    0.20726    0.14236     16.762     1141.1    0.69472     649.38     33.547     2.3946    0.09465     2.4666
     649.53     25.395     0.0284    -999.25     111.34     68.236    -999.25    0.42652  0.0037447     0.0658     190.22     36.062     1582.3    0.01883     10.264     2.3896    0.13565    0.06488     51.405     919.57     2.3579     649.53     48.647     2.6356    0.10088     2.5991
