~Version ---------------------------------------------------
VERS.   2.0 : CWLS log ASCII Standard -VERSION 2.0
WRAP.    NO : One line per depth step
DLM . SPACE : Column Data Section Delimiter
~Well ------------------------------------------------------
STRT.m                     1.0668 : START DEPTH
STOP.m                  1939.1376 : STOP DEPTH
STEP.m                     0.1524 : STEP
NULL.                    -9999.25 : NULL VALUE
COMP. Elmworth Energy Corporation : COMPANY
WELL.               Kennetcook #2 : WELL
FLD .               Windsor Block : FIELD
LOC .     Lat = 45* 12' 34.237" N : LOCATION
PROV.                 Nova Scotia : PROVINCE
CNTY.                        None : COUNTY
STAT.                        None : STATE
CTRY.                          CA : COUNTRY
SRVC.                             : SERVICE COMPANY
DATE.  2016-03-23 16:07:07.010361 : DATE
UWI .     Long = 63* 45'24.460  W : UNIQUE WELL ID
API .                             : API NUMBER
LIC .                       P-129 : 
LONG.                        None : 
TOWN.                 63.75 Deg W : 
RANG.                      PD 176 : 
LATI.                        None : 
GDAT.                        None : 
SECT.                 45.20 Deg N : 
~Curves ----------------------------------------------------
DEPT    .m      : DEPTH
RLA1    .ohm.m  : HRLT Borehole Corrected Resistivity 1
NPHI_LIM.m3/m3  : Thermal Neutron Porosity (matrix Limestone)
RXO_HRLT.ohm.m  : 
DTS     .us/ft  : DTS
DT      .us/ft  : DT
HCAL    .in     : HRCC Cal. Caliper
DPHI_SAN.m3/m3  : Density Porosity (matrix Sandstone)
DRHO    .g/cm3  : HRDD Density Correction
NPHI_SAN.m3/m3  : Thermal Neutron Porosity (matrix Sandstone)
RLA3    .ohm.m  : HRLT Borehole Corrected Resistivity 3
SP      .mV     : SP
RLA5    .ohm.m  : HRLT Borehole Corrected Resistivity 5
NPHI_DOL.m3/m3  : Thermal Neutron Porosity (matrix Dolomite)
CALI    .in     : Caliper
RT_HRLT .ohm.m  : HRLT Computed True Resistivity
DPHI_DOL.m3/m3  : Density Porosity (matrix Dolomite)
DPHI_LIM.m3/m3  : Density Porosity (matrix Limestone)
RLA2    .ohm.m  : HRLT Borehole Corrected Resistivity 2
RLA4    .ohm.m  : HRLT Borehole Corrected Resistivity 4
RXOZ    .ohm.m  : MCFL Standard Resolution Invaded Zone Resistivity
GR      .gAPI   : Gamma-Ray
PEF     .       : Photoelectric Factor
RM_HRLT .ohm.m  : HRLT Mud Resistivity
RHOB    .g/cm3  : Bulk Density
~Params ----------------------------------------------------
EGL.   90.3 : 
EKB.   94.8 : 
TDD. 1935.0 : 
TDL. 1935.0 : 
~Other -----------------------------------------------------
~ASCII -----------------------------------------------------
# ...
     901.45     39.048    0.18904    -999.25     119.02     67.707    -999.25   -0.02333 -0.0045198    0.24057     45.583     40.688     50.473    0.14193     7.9805     37.161    0.07745    0.00192      43.55     47.116      39.53     901.45     96.321     3.0349    0.12126     2.7067
      901.6     38.344    0.18886    -999.25     119.84     68.126    -999.25     -0.028 -0.0037698    0.24016     43.168      40.25     47.101    0.14003     7.9698      37.96    0.08186    0.00669     41.105     44.335     40.193      901.6     93.965     3.0407    0.12233     2.6986
     901.75     34.242    0.19222    -999.25     120.37     69.478    -999.25   -0.02194 -0.0063352    0.24339     36.759     39.438     40.258     0.1317      7.978     34.395    0.07978    0.00444     35.345     37.479      35.63     901.75     97.993     3.1503    0.12154     2.7024
      901.9     28.709    0.21095    -999.25     120.19     69.518    -999.25   -0.01397 -0.0065485    0.26265     29.797     39.312      32.47      0.142     7.9714     31.434    0.08537    0.01048     29.181     30.451     32.166      901.9     107.33     3.4697    0.12029     2.6921
     902.06     25.894    0.23457    -999.25     119.49     69.771    -999.25     0.0045  -0.010893    0.28675     26.277      39.25     28.342    0.15073      7.982     28.524    0.09056     0.0161     26.157     26.535     28.731     902.06     112.12     3.3159    0.12024     2.6825
     902.21     26.049    0.22088    -999.25     116.54      69.19    -999.25    0.02219  -0.015242    0.27309     26.606     38.625     28.126     0.1528     7.9899     25.196    0.10026     0.0266     26.465     26.524     25.549     902.21     111.36     3.0338    0.12139     2.6645
     902.36     23.133    0.19132    -999.25     116.81     68.438    -999.25    0.02336  -0.016143    0.24287     23.103      37.75     24.469    0.13366     8.0583     22.159     0.1067    0.03356     23.184     23.083     22.529     902.36     104.97     2.7882    0.12392     2.6526
     902.51     23.166    0.16212    -999.25     113.99      68.01    -999.25    0.01283 -0.0081617    0.21278     23.268     36.812     24.126     0.1205     8.0759     19.289    0.11013    0.03728     23.321     23.125      20.86     902.51     97.356     2.6664    0.12643     2.6463
     902.67      21.84    0.17541    -999.25     113.34     67.685    -999.25    0.01175 -0.0066341    0.22664     21.822      36.25     22.727    0.11495     8.0909     20.844    0.11126     0.0385     21.823       21.8     21.346     902.67     94.847     2.7356    0.12814     2.6442
     902.82     21.459    0.16887    -999.25      113.6     67.184    -999.25    0.01771 -0.0034587    0.21984     21.643      35.75     22.221    0.12843      8.111     23.899    0.11635      0.044     21.311     21.717     22.976     902.82     93.403     2.7635    0.12859     2.6348
     902.97      23.16    0.19228    -999.25     114.13      66.96    -999.25    0.03551   7.23e-05    0.24401     23.724     34.875     24.513    0.14413     8.1043     20.451    0.12579    0.05422     23.072     23.921     21.255     902.97     87.261     2.7177    0.12865     2.6173
     903.12     20.424    0.20913    -999.25     111.99     66.876    -999.25    0.03967  3.189e-05    0.26124     20.937     33.875     21.405    0.14542     8.1411     19.988    0.13153    0.06043     20.309     21.182     20.348     903.12      81.18       2.61    0.12911     2.6067
     903.27     22.842    0.18138    -999.25     111.93     66.832    -999.25    0.04554 -0.0034293    0.23269     23.878     32.562     24.478    0.12398     8.1497     19.153    0.13142    0.06031      22.87     24.214     19.914     903.27     76.315     2.5798    0.12905     2.6069
     903.43     23.863    0.15683    -999.25     114.19     67.052    -999.25    0.03192  0.0018629    0.20731     25.071         32     25.515    0.10005     8.1419     21.255    0.13247    0.06145     24.045     25.506     21.953     903.43     80.496     2.5344    0.12897     2.6049
     903.58     23.264    0.15398    -999.25      114.7     67.381    -999.25    0.02588  0.0012277    0.20438     24.601      31.75     25.223    0.08614      8.172     21.264    0.13346    0.06251     23.553     24.913     21.737     903.58       82.7     2.6213    0.12913     2.6031
     903.73       20.4    0.15923    -999.25     113.47     67.984    -999.25    0.02484 -0.0024785    0.20989     21.287     31.875      21.76    0.08426     8.1838     19.761    0.13389    0.06298     20.524     21.696     20.135     903.73     83.647     2.6024    0.12934     2.6023
     903.88     18.301    0.15801    -999.25     113.97     68.484    -999.25    0.02641 -0.0016123    0.20861     18.827     30.438     19.458     0.0896     8.1695     17.505    0.13235    0.06131     18.442     19.264     17.882     903.88     83.191     2.7075    0.12952     2.6052
     904.04     16.863    0.16008    -999.25     114.43     69.042    -999.25    0.03627 -0.0025681    0.21078     17.033     29.938     17.438    0.09423     8.1957     15.708    0.13653    0.06584     16.726     17.367     16.406     904.04     83.952     2.6336    0.12955     2.5974
     904.19     17.174    0.16118    -999.25     114.26     69.218    -999.25     0.0363 -0.0051938    0.21193     17.267         30     17.787    0.10312      8.177     14.246    0.13841    0.06787     16.864     17.619     15.655     904.19     85.437     2.6442    0.12927     2.5939
     904.34     17.111    0.15138    -999.25     114.26     67.939    -999.25    0.04225 -0.0066278    0.20167     17.215     30.375     17.697    0.10924     8.1821     13.981    0.13528    0.06449     16.919     17.552      15.53     904.34     84.296     2.5858    0.12936     2.5997
     904.49      16.46    0.18558    -999.25     114.26     67.939    -999.25    0.03721 -0.0063957     0.2373     16.864     30.375     17.372     0.1072     8.1863     15.035    0.13181    0.06073     16.534     17.078     15.547     904.49     83.764     2.6224    0.12983     2.6062
     904.65     17.084    0.15661    -999.25     114.15     68.633    -999.25    0.03328 -0.0069236    0.20715      17.62     29.938     18.151    0.10074     8.2028     15.918    0.12801    0.05662     17.254     17.851     16.335     904.65     80.496     2.6591    0.13032     2.6132
      904.8     19.716     0.1376    -999.25      114.1     68.588    -999.25    0.02478 -0.0065561    0.18719     20.601     29.938      21.24    0.08959     8.1795     17.394    0.12966     0.0584     19.848     20.713     17.877      904.8     81.788     2.6326    0.13077     2.6101
     904.95     20.709     0.1501    -999.25     113.52     68.559    -999.25    0.01578 -0.00049376    0.20031     21.604     30.062     22.491    0.09989      8.177     18.457    0.12251    0.05067     21.077     21.679     18.867     904.95     81.829     2.6183     0.1313     2.6234
      905.1     16.652    0.16399    -999.25      113.5      68.52    -999.25    0.02352 -0.0034631    0.21485     17.078     29.938     17.797    0.10649     8.1813     18.969    0.12213    0.05025     16.693     17.199     18.794      905.1     82.969      2.527    0.13217     2.6241
     905.26     17.037     0.1647    -999.25     113.84     69.201    -999.25    0.02468 -0.0020427    0.21556     17.259     29.812     18.083    0.11823     8.1637     20.972    0.12257    0.05073      16.78      17.57     20.374     905.26     84.869     2.6403    0.13161     2.6232
     905.41     21.554    0.17755    -999.25     114.32       69.2    -999.25    0.03493 -0.0010256    0.22884     21.531         29     22.811     0.1195     8.1361     17.452    0.13167    0.06058     21.415     21.887     18.458     905.41     87.185     2.7106    0.13113     2.6064
     905.56     13.876    0.18774    -999.25     114.37     69.515    -999.25    0.04192  -0.003217    0.23945     13.427     28.125     14.286    0.10855     8.1311     17.173    0.14087    0.07053     13.308      13.68      15.31     905.56     87.185      2.646    0.13189     2.5894
