~Version ---------------------------------------------------
VERS.   2.0 : CWLS log ASCII Standard -VERSION 2.0
WRAP.    NO : One line per depth step
DLM . SPACE : Column Data Section Delimiter
~Well ------------------------------------------------------
STRT.m                     1.0668 : START DEPTH
STOP.m                  1939.1376 : STOP DEPTH
STEP.m                     0.1524 : STEP
NULL.                    -9999.25 : NULL VALUE
COMP. Elmworth Energy Corporation : COMPANY
WELL.               Kennetcook #2 : WELL
FLD .               Windsor Block : FIELD
LOC .     Lat = 45* 12' 34.237" N : LOCATION
PROV.                 Nova Scotia : PROVINCE
CNTY.                        None : COUNTY
STAT.                        None : STATE
CTRY.                          CA : COUNTRY
SRVC.                             : SERVICE COMPANY
DATE.  2016-03-23 16:07:07.010361 : DATE
UWI .     Long = 63* 45'24.460  W : UNIQUE WELL ID
API .                             : API NUMBER
LIC .                       P-129 : 
LONG.                        None : 
TOWN.                 63.75 Deg W : 
RANG.                      PD 176 : 
LATI.                        None : 
GDAT.                        None : 
SECT.                 45.20 Deg N : 
~Curves ----------------------------------------------------
DEPT    .m      : DEPTH
RLA1    .ohm.m  : HRLT Borehole Corrected Resistivity 1
NPHI_LIM.m3/m3  : Thermal Neutron Porosity (matrix Limestone)
RXO_HRLT.ohm.m  : 
DTS     .us/ft  : DTS
DT      .us/ft  : DT
HCAL    .in     : HRCC Cal. Caliper
DPHI_SAN.m3/m3  : Density Porosity (matrix Sandstone)
DRHO    .g/cm3  : HRDD Density Correction
NPHI_SAN.m3/m3  : Thermal Neutron Porosity (matrix Sandstone)
RLA3    .ohm.m  : HRLT Borehole Corrected Resistivity 3
SP      .mV     : SP
RLA5    .ohm.m  : HRLT Borehole Corrected Resistivity 5
NPHI_DOL.m3/m3  : Thermal Neutron Porosity (matrix Dolomite)
CALI    .in     : Caliper
RT_HRLT .ohm.m  : HRLT Computed True Resistivity
DPHI_DOL.m3/m3  : Density Porosity (matrix Dolomite)
DPHI_LIM.m3/m3  : Density Porosity (matrix Limestone)
RLA2    .ohm.m  : HRLT Borehole Corrected Resistivity 2
RLA4    .ohm.m  : HRLT Borehole Corrected Resistivity 4
RXOZ    .ohm.m  : MCFL Standard Resolution Invaded Zone Resistivity
GR      .gAPI   : Gamma-Ray
PEF     .       : Photoelectric Factor
RM_HRLT .ohm.m  : HRLT Mud Resistivity
RHOB    .g/cm3  : Bulk Density
~Params ----------------------------------------------------
EGL.   90.3 : 
EKB.   94.8 : 
TDD. 1935.0 : 
TDL. 1935.0 : 
~Other -----------------------------------------------------
~ASCII -----------------------------------------------------
# ...
     1545.8     563.06    0.15757    -999.25     107.18     64.481    -999.25   -0.00552  0.0041897    0.20812     1493.9     60.625     1511.8    0.09477     7.9453     21.207    0.03501     -0.044     3058.2     1503.9     21.328     1545.8     95.776     3.0211    0.12636     2.7852
     1545.9      687.9    0.15403    -999.25     108.07     63.926    -999.25   -0.01562 0.00073415    0.20444       2238     60.688     2223.6    0.09631     7.9355     20.769    0.03088   -0.04846     4494.2     2291.1     20.127     1545.9     104.86     2.9573    0.12874     2.7929
     1546.1     651.72    0.18125    -999.25     107.57     63.641    -999.25    -0.0241 -0.0020293     0.2328     1325.1     59.938     1275.1    0.12198     7.9453     26.486    0.02895   -0.05055     1878.5       1336     26.688     1546.1     108.52     2.8514    0.12926     2.7964
     1546.3     684.22    0.19005    -999.25     103.22      62.36    -999.25   -0.03041 -0.00085407    0.24185     1597.7      59.75     1499.3    0.13087     7.9489     34.413    0.04234   -0.03607     2630.3     1572.6     35.041     1546.3     114.41     2.9519    0.12412     2.7717
     1546.4     543.68    0.16943    -999.25     102.02     61.317    -999.25   -0.02164 -0.0033163    0.22047     631.34         60        613    0.14083     7.9503     31.447    0.05178   -0.02586     770.77     644.38      32.59     1546.4     118.73     2.9524    0.12457     2.7542
     1546.6     433.76    0.18149    -999.25     99.786      60.59    -999.25   -0.01952 -0.0075824    0.23291      311.4     60.375      278.3    0.10935     7.9529      45.83    0.06679   -0.00961     340.84     294.15     48.952     1546.6     118.27     2.8776    0.12654     2.7264
     1546.7     478.59     0.1588    -999.25     98.498     58.694    -999.25    -0.0247 -0.0046237    0.20942     397.48     60.438      365.1    0.07333     7.9355     25.735    0.06666   -0.00975     445.56     379.73     44.448     1546.7     104.76     2.5989    0.12957     2.7267
     1546.9     424.03    0.09037    -999.25     97.868     58.576    -999.25   -0.04396  0.0022462    0.13654     255.28     60.062     233.78     0.0428     7.9328     26.716    0.07654    0.00093     304.46      241.9     28.873     1546.9      86.86     2.6139    0.13209     2.7084
       1547     504.03    0.09508    -999.25     96.351     58.853    -999.25   -0.03796 0.00081897    0.14084     468.85     59.938     420.37    0.03737     7.9287     15.465    0.08031    0.00501     549.97     437.34     20.981       1547     76.866      2.561    0.13272     2.7014
     1547.2      606.3    0.11915    -999.25     97.208     59.383    -999.25   -0.03368  0.0040579    0.16662     969.38     60.188     914.88    0.04601     7.9301     19.762    0.08701    0.01227     1304.6     914.97     24.474     1547.2     75.531     2.5599    0.13275      2.689
     1547.3     589.24    0.10389    -999.25     99.577     59.725    -999.25   -0.02098  0.0095168    0.15034     838.49     59.938     788.98    0.04393     7.9237     30.955    0.07654    0.00093     1198.2     780.19     34.582     1547.3     77.985     2.5291     0.1273     2.7084
     1547.5     536.58    0.09184    -999.25     99.138      59.28    -999.25   -0.01765  0.0087772    0.13731     603.19     59.625     571.22    0.03869      7.928     37.545    0.06484   -0.01172     723.57      564.6     51.593     1547.5     78.533     2.5359    0.12881       2.73
     1547.6     556.04    0.09292    -999.25     99.418     60.109    -999.25   -0.01259  0.0059671     0.1386     996.82     59.062     998.85     0.0443     7.9162     50.158    0.05848    -0.0186     1188.6     966.05     55.889     1547.6     78.804     2.6839    0.13373     2.7418
     1547.8     590.67    0.09934    -999.25      96.91     59.415    -999.25   -0.01087  0.0055728    0.14575     2180.1      59.25     2332.9     0.0493     7.9137      65.29    0.05632   -0.02094     3613.5     2192.6     64.274     1547.8     82.816     2.6172    0.13401     2.7458
     1547.9     518.57     0.1274    -999.25     94.581     59.323    -999.25   -0.01141  0.0050367    0.17584     2925.6     59.062     3399.7     0.0565     7.9177       77.7    0.05859   -0.01848     5574.5     3085.3     76.446     1547.9     85.224     2.6748    0.13425     2.7416
     1548.1     458.07    0.13983    -999.25     95.537     58.353    -999.25   -0.01418  0.0029675    0.18921     2415.9     58.812     2841.1    0.06314     7.9113     88.298    0.06117   -0.01569     4496.3     2465.3     87.556     1548.1       95.2     2.6697    0.13167     2.7368
     1548.2      388.7    0.12234    -999.25     99.337     59.064    -999.25   -0.01922   0.002157    0.17068     1322.8     58.125     1612.6    0.06075     7.9177     27.813    0.08457    0.00962     2082.7     1376.2      27.37     1548.2     91.822     2.6978    0.12819     2.6935
     1548.4     315.89    0.11593    -999.25     92.874     59.449    -999.25   -0.01887  0.0028988    0.16376     366.43     57.688     435.49    0.05533     7.9227      20.56    0.09677    0.02283     432.99      358.5     21.839     1548.4      89.21     2.5022    0.12966      2.671
     1548.5     319.19    0.11638    -999.25     96.637     59.192    -999.25   -0.02378  0.0013994    0.16401     366.97     57.688     439.64    0.04609     7.9355     18.538    0.08523    0.01033     423.43     367.28     19.299     1548.5     80.456     2.1992    0.13369     2.6923
     1548.7     279.65    0.10491    -999.25     88.914     58.282    -999.25   -0.02772 -0.00014466     0.1514     309.43     57.562     393.59    0.04446     7.9654     22.013    0.04187   -0.03658     366.46     316.83     23.317     1548.7      75.67      2.172    0.13582     2.7725
     1548.8     278.11    0.09423    -999.25     88.914     58.282    -999.25   -0.02924  -0.001613    0.13981     318.51     57.312     402.45    0.04028     7.9679     22.612   -0.00388   -0.08607     382.25     323.55     24.112     1548.8     70.715      2.227     0.1327     2.8572
       1549      302.1    0.09688    -999.25     93.547     57.287    -999.25   -0.02966  0.0042321    0.14266     481.96       56.5      642.3    0.03746     7.9624     30.053   -0.00231   -0.08437     596.15     500.29     31.486       1549     68.272     2.4902    0.12974     2.8543
     1549.1     309.32    0.08266    -999.25     91.717     57.544    -999.25   -0.02173 -0.00065511    0.12729     542.27     54.938     755.85    0.03228     7.9679     24.661    0.01803   -0.06237        603     564.16     24.815     1549.1     68.342     2.5497    0.12915     2.8166
     1549.3      254.5    0.08723    -999.25     93.203     54.925    -999.25   -0.02042   0.005584    0.13176     247.34      54.75     344.98    0.03101     7.9704     14.067     0.0524   -0.02518     254.63     249.94      14.19     1549.3     69.645     2.4894     0.1309     2.7531
     1549.5      241.6    0.08816    -999.25     86.921     54.288    -999.25   -0.00954  0.0052174    0.13272     211.11     54.625     287.06    0.02927     7.9651     11.303    0.06395   -0.01269     210.88     215.24     11.301     1549.5     70.052     2.2952    0.13495     2.7317
     1549.6     209.61    0.08995    -999.25     82.082     53.823    -999.25   -0.00653   0.004685    0.13462     222.03     54.312     318.85    0.02828      7.993     17.221    0.08633    0.01153     215.46     231.37     17.322     1549.6     70.391     2.1951    0.13668     2.6903
     1549.8     162.33    0.08019    -999.25     85.577     56.697    -999.25   -0.00507   0.004473    0.12366     160.16     52.875     229.93    0.01982     8.0015     10.334    0.14328    0.07314     158.64      169.3     10.368     1549.8     66.306     2.2647    0.13562     2.5849
     1549.9     91.541    0.05991    -999.25     84.433     55.247    -999.25    0.00431  0.0044348    0.10099     70.562     52.688     98.928    0.01515     8.0269     5.4193    0.19753    0.13183     68.389     75.541     6.3766     1549.9     58.977     2.2694     0.1403     2.4846
