~Version ---------------------------------------------------
VERS.   2.0 : CWLS log ASCII Standard -VERSION 2.0
WRAP.    NO : One line per depth step
DLM . SPACE : Column Data Section Delimiter
~Well ------------------------------------------------------
STRT.m                     1.0668 : START DEPTH
STOP.m                  1939.1376 : STOP DEPTH
STEP.m                     0.1524 : STEP
NULL.                    -9999.25 : NULL VALUE
COMP. Elmworth Energy Corporation : COMPANY
WELL.               Kennetcook #2 : WELL
FLD .               Windsor Block : FIELD
LOC .     Lat = 45* 12' 34.237" N : LOCATION
PROV.                 Nova Scotia : PROVINCE
CNTY.                        None : COUNTY
STAT.                        None : STATE
CTRY.                          CA : COUNTRY
SRVC.                             : SERVICE COMPANY
DATE.  2016-03-23 16:07:07.010361 : DATE
UWI .     Long = 63* 45'24.460  W : UNIQUE WELL ID
API .                             : API NUMBER
LIC .                       P-129 : 
LONG.                        None : 
TOWN.                 63.75 Deg W : 
RANG.                      PD 176 : 
LATI.                        None : 
GDAT.                        None : 
SECT.                 45.20 Deg N : 
~Curves ----------------------------------------------------
DEPT    .m      : DEPTH
RLA1    .ohm.m  : HRLT Borehole Corrected Resistivity 1
NPHI_LIM.m3/m3  : Thermal Neutron Porosity (matrix Limestone)
RXO_HRLT.ohm.m  : 
DTS     .us/ft  : DTS
DT      .us/ft  : DT
HCAL    .in     : HRCC Cal. Caliper
DPHI_SAN.m3/m3  : Density Porosity (matrix Sandstone)
DRHO    .g/cm3  : HRDD Density Correction
NPHI_SAN.m3/m3  : Thermal Neutron Porosity (matrix Sandstone)
RLA3    .ohm.m  : HRLT Borehole Corrected Resistivity 3
SP      .mV     : SP
RLA5    .ohm.m  : HRLT Borehole Corrected Resistivity 5
NPHI_DOL.m3/m3  : Thermal Neutron Porosity (matrix Dolomite)
CALI    .in     : Caliper
RT_HRLT .ohm.m  : HRLT Computed True Resistivity
DPHI_DOL.m3/m3  : Density Porosity (matrix Dolomite)
DPHI_LIM.m3/m3  : Density Porosity (matrix Limestone)
RLA2    .ohm.m  : HRLT Borehole Corrected Resistivity 2
RLA4    .ohm.m  : HRLT Borehole Corrected Resistivity 4
RXOZ    .ohm.m  : MCFL Standard Resolution Invaded Zone Resistivity
GR      .gAPI   : Gamma-Ray
PEF     .       : Photoelectric Factor
RM_HRLT .ohm.m  : HRLT Mud Resistivity
RHOB    .g/cm3  : Bulk Density
~Params ----------------------------------------------------
EGL.   90.3 : 
EKB.   94.8 : 
TDD. 1935.0 : 
TDL. 1935.0 : 
~Other -----------------------------------------------------
~ASCII -----------------------------------------------------
# ...
      257.1    0.01778    0.34387    0.02355    -999.25    -999.25     4.3913    0.08972   -0.64477    0.38906    0.01596     86.875    0.01585    0.33952     8.9488    0.01585    0.24345    0.18151    0.01616    0.01592     0.0469      257.1     69.714     18.589    0.02473     2.3996
     257.25    0.05879    0.30941    0.02384    -999.25    -999.25     4.3913    0.08891   -0.64134    0.35685     0.0453     86.875    0.03899    0.34808     8.9618    0.03899    0.24343    0.18149    0.04823    0.04257     0.0469     257.25     69.647     18.547     0.0246     2.3997
      257.4    0.00797    0.32745    0.02458    -999.25    -999.25     4.3913    0.08877   -0.62987    0.37446    0.00885     86.875    0.01068    0.35649     8.9488    0.01068    0.24341    0.18147    0.00801    0.00934     0.0469      257.4     67.955     26.032    0.02459     2.3997
     257.56    0.02846    0.31563    0.02429    -999.25    -999.25     4.3913    0.09153   -0.61854    0.36258    0.02506     86.875     0.0236    0.35484     8.9571     0.0236    0.24339    0.18145    0.02648    0.02428    0.04689     257.56     65.908     31.649    0.02466     2.3997
     257.71    0.02962    0.30923    0.02371    -999.25    -999.25     4.3913    0.08464   -0.61014    0.35613    0.02494     86.875    0.02296    0.35611     8.9407    0.02296    0.24337    0.18143    0.02608    0.02403    0.04688     257.71     68.163     35.336    0.02469     2.3998
     257.86     0.0304    0.32968    0.02443    -999.25    -999.25     4.3913    0.08088   -0.60734    0.37607    0.02562     86.875     0.0237    0.38969     8.9538     0.0237    0.24335     0.1814    0.02685    0.02472    0.04686     257.86      71.97      28.58    0.02473     2.3998
     258.01    0.02821    0.36065    0.02394    -999.25    -999.25     4.3913    0.07547   -0.61056    0.40541    0.02377     86.875    0.02159    0.42482     8.9413    0.02159    0.24325    0.18129    0.02489    0.02289    0.04684     258.01     73.726     29.484    0.02474        2.4
     258.17    0.02898    0.35211    0.02324    -999.25    -999.25     4.3913     0.0707   -0.60525    0.39582    0.02448     86.875    0.02284     0.4229     8.9538    0.02284    0.24294    0.18096    0.02554    0.02366    0.04681     258.17     71.918     24.981    0.02463     2.4006
     258.32    0.03053    0.33906    0.02279    -999.25    -999.25     4.3913    0.05906   -0.60196    0.38288    0.02556     86.875    0.02367    0.39665     8.9488    0.02367    0.24208    0.18003     0.0268    0.02464    0.04677     258.32     68.887     37.465    0.02463     2.4021
     258.47    0.02978    0.35177    0.02315    -999.25    -999.25     4.3913    0.04986   -0.60288    0.39577    0.02491     86.875    0.02237    0.37668     8.9587    0.02237    0.23601    0.17346     0.0261    0.02387    0.04653     258.47     72.638     24.026     0.0247     2.4134
     258.62    0.02809    0.34732    0.02355    -999.25    -999.25     4.4135    0.04983   -0.59214    0.39269    0.02413     86.875    0.02254    0.36368     8.9523    0.02254    0.22465    0.16117    0.02517    0.02335    0.04581     258.62     73.881     15.324    0.02463     2.4344
     258.78    0.03103    0.32434    0.02441    -999.25    -999.25     4.3913    0.06428   -0.57113    0.37099    0.02596     86.875    0.02403     0.3718     8.9587    0.02403    0.21191    0.14739    0.02714    0.02502    0.04433     258.78     75.431     11.989    0.02462      2.458
     258.93    0.02823    0.30586    0.02382    -999.25    -999.25     4.4024    0.07321   -0.57241    0.35246    0.02392     86.875    0.02228    0.39185     8.9652    0.02228    0.20077    0.13533     0.0249    0.02311    0.04257     258.93     73.172     14.148     0.0246     2.4786
     259.08    0.03033    0.36474    0.02399    -999.25    -999.25     4.3913    0.06174     -0.573    0.40856    0.02539     86.875    0.02345    0.40701     8.9727    0.02345    0.16451     0.0961    0.02665    0.02448    0.04081     259.08     73.635     22.935    0.02447     2.5457
     259.23    0.02865    0.35132     0.0245    -999.25    -999.25     4.3913    0.03013   -0.58339    0.39479    0.02435     86.875    0.02266    0.39305     8.9833    0.02266    0.11317    0.04057    0.02542    0.02354    0.04031     259.23     74.161     22.021    0.02446     2.6406
     259.38    0.02944    0.35395    0.02379    -999.25    -999.25     4.3913    0.01734   -0.57236    0.39834      0.025     86.875    0.02308    0.38216     8.9717    0.02308     0.0421   -0.03633    0.02617    0.02412    0.04065     259.38     74.161     25.303    0.02501     2.7721
     259.54    0.02805    0.34491    0.02436    -999.25    -999.25     4.3913    0.00952   -0.56097    0.38977    0.02385     86.875    0.02217    0.34919     8.9816    0.02217   -0.02655    -0.1106    0.02477    0.02307    0.04089     259.54     72.821      28.54     0.0261     2.8991
     259.69    0.02991    0.30608    0.02369    -999.25    -999.25     4.3913   -0.02107   -0.55519    0.35314    0.02514     86.875    0.02319    0.35355     8.9758    0.02319   -0.08658   -0.17554    0.02635    0.02427    0.04038     259.69     70.633     31.962     0.0278     3.0102
     259.84    0.03071    0.33506    0.02443    -999.25    -999.25     4.3913   -0.07845   -0.55979    0.38093    0.02573     86.875    0.02366    0.33945     8.9816    0.02366   -0.12661   -0.21884    0.02695    0.02477    0.03974     259.84     69.896     23.334    0.03018     3.0842
     259.99    0.03076    0.32642    0.02259    -999.25    -999.25     4.3913   -0.14168   -0.56107     0.3728    0.02589     86.875    0.02366    0.34989     8.9816    0.02366   -0.14018   -0.23353    0.02717    0.02488    0.03955     259.99     72.124     21.458    0.03295     3.1093
     260.15    0.02888    0.33501     0.0227    -999.25    -999.25     4.3913   -0.18281   -0.56732    0.38017    0.02432     86.875    0.02222     0.3279     8.9743    0.02222   -0.13304   -0.22581    0.02539    0.02342    0.03953     260.15     72.195     22.961      0.036     3.0961
      260.3    0.02931     0.3238    0.02352    -999.25    -999.25     4.3913   -0.22367   -0.57922    0.36952     0.0248     86.875    0.02311    0.30562     8.9816    0.02311   -0.11287   -0.20398    0.02589    0.02397    0.03953      260.3     73.073     18.661    0.03893     3.0588
     260.45    0.03167    0.33273    0.02355    -999.25    -999.25     4.3913   -0.26529   -0.58797    0.37889    0.02658     86.875    0.02454    0.28055     8.9734    0.02454    -0.0599   -0.14667    0.02788    0.02563    0.03953     260.45     73.312     18.814    0.04177     2.9608
      260.6    0.02828    0.31422    0.02154    -999.25    -999.25     4.3913   -0.30723    -0.5907     0.3621    0.02397     86.875    0.02221    0.27693     8.9853    0.02221   -0.10137   -0.19155    0.02506    0.02314    0.05603      260.6     73.242     17.612    0.04438     3.0375
     260.76    0.02914    0.29672    0.02298    -999.25    -999.25     4.3913   -0.34346   -0.58767    0.34524    0.02463     86.875    0.02264    0.27717     8.9701    0.02264   -0.21448   -0.31391    0.02577    0.02374      0.064     260.76     73.202     22.857    0.04619     3.2468
     260.91    0.03061     0.2997    0.02323    -999.25    -999.25     4.3913   -0.36999   -0.59593      0.348    0.02574     86.875    0.02348     0.3446     8.9838    0.02348   -0.37025   -0.48243    0.02699    0.02475    0.06826     260.91     74.401     19.889    0.04706      3.535
     261.06    0.03031    0.34991    0.02282    -999.25    -999.25     4.3913   -0.38992   -0.60151    0.39412    0.02575     86.875    0.02363    0.33121     8.9701    0.02363   -0.44565   -0.56401    0.02703    0.02478    0.05211     261.06     77.436     19.455    0.04726     3.6745
     261.21    0.02842    0.34374    0.02512    -999.25    -999.25     4.3913   -0.40908   -0.60384    0.38889    0.02426     86.875    0.02273    0.34919     8.9885    0.02273   -0.46131   -0.58095    0.02525    0.02346    0.05125     261.21     74.723     17.293    0.04714     3.7034
