~Version ---------------------------------------------------
VERS.   2.0 : CWLS log ASCII Standard -VERSION 2.0
WRAP.    NO : One line per depth step
DLM . SPACE : Column Data Section Delimiter
~Well ------------------------------------------------------
STRT.m                     1.0668 : START DEPTH
STOP.m                  1939.1376 : STOP DEPTH
STEP.m                     0.1524 : STEP
NULL.                    -9999.25 : NULL VALUE
COMP. Elmworth Energy Corporation : COMPANY
WELL.               Kennetcook #2 : WELL
FLD .               Windsor Block : FIELD
LOC .     Lat = 45* 12' 34.237" N : LOCATION
PROV.                 Nova Scotia : PROVINCE
CNTY.                        None : COUNTY
STAT.                        None : STATE
CTRY.                          CA : COUNTRY
SRVC.                             : SERVICE COMPANY
DATE.  2016-03-23 16:07:07.010361 : DATE
UWI .     Long = 63* 45'24.460  W : UNIQUE WELL ID
API .                             : API NUMBER
LIC .                       P-129 : 
LONG.                        None : 
TOWN.                 63.75 Deg W : 
RANG.                      PD 176 : 
LATI.                        None : 
GDAT.                        None : 
SECT.                 45.20 Deg N : 
~Curves ----------------------------------------------------
DEPT    .m      : DEPTH
RLA1    .ohm.m  : HRLT Borehole Corrected Resistivity 1
NPHI_LIM.m3/m3  : Thermal Neutron Porosity (matrix Limestone)
RXO_HRLT.ohm.m  : 
DTS     .us/ft  : DTS
DT      .us/ft  : DT
HCAL    .in     : HRCC Cal. Caliper
DPHI_SAN.m3/m3  : Density Porosity (matrix Sandstone)
DRHO    .g/cm3  : HRDD Density Correction
NPHI_SAN.m3/m3  : Thermal Neutron Porosity (matrix Sandstone)
RLA3    .ohm.m  : HRLT Borehole Corrected Resistivity 3
SP      .mV     : SP
RLA5    .ohm.m  : HRLT Borehole Corrected Resistivity 5
NPHI_DOL.m3/m3  : Thermal Neutron Porosity (matrix Dolomite)
CALI    .in     : Caliper
RT_HRLT .ohm.m  : HRLT Computed True Resistivity
DPHI_DOL.m3/m3  : Density Porosity (matrix Dolomite)
DPHI_LIM.m3/m3  : Density Porosity (matrix Limestone)
RLA2    .ohm.m  : HRLT Borehole Corrected Resistivity 2
RLA4    .ohm.m  : HRLT Borehole Corrected Resistivity 4
RXOZ    .ohm.m  : MCFL Standard Resolution Invaded Zone Resistivity
GR      .gAPI   : Gamma-Ray
PEF     .       : Photoelectric Factor
RM_HRLT .ohm.m  : HRLT Mud Resistivity
RHOB    .g/cm3  : Bulk Density
~Params ----------------------------------------------------
EGL.   90.3 : 
EKB.   94.8 : 
TDD. 1935.0 : 
TDL. 1935.0 : 
~Other -----------------------------------------------------
~ASCII -----------------------------------------------------
# ...
     1934.1     361.23    0.08198    -999.25     90.099     54.898    -999.25    0.54642   0.061395    0.12585     800.05     71.438     853.83    0.03588     2.4203     7.5755    0.07895    0.00354     754.04     835.17      7.278     1934.1     136.82      2.237    0.08986     2.7039
     1934.3        361    0.08197    -999.25     90.099     54.898    -999.25    0.54642   0.061395    0.12585     800.03     73.062     853.82    0.03583     2.4203     7.5578    0.07811    0.00263     754.02     835.16     7.2608     1934.3     136.82      2.237    0.08984     2.7055
     1934.4     360.79    0.08197    -999.25     90.099     54.898    -999.25    0.54642   0.061395    0.12585     800.08       73.5     853.86    0.03585     2.4203     7.5539    0.07615    0.00051     754.06      835.2     7.2571     1934.4     136.82      2.237    0.08988     2.7091
     1934.6     361.25    0.08198    -999.25     90.099     54.898    -999.25    0.54642   0.061395    0.12585     800.11       72.5     853.88    0.03588     2.4203     7.5575    0.07548   -0.00021      754.1     835.23     7.2605     1934.6     136.82      2.237    0.08991     2.7104
     1934.7     361.31    0.08197    -999.25     90.099     54.898    -999.25    0.54642   0.061395    0.12584     800.13     71.625      853.9    0.03582     2.4203     7.5634    0.07734     0.0018     754.12     835.25     7.2662     1934.7     136.82      2.237    0.08993     2.7069
     1934.9     361.11    0.08197    -999.25     90.099     54.898    -999.25    0.54642   0.061395    0.12585     800.21     72.188     853.97    0.03583     2.4203     7.5745    0.07961    0.00426      754.2     835.33     7.2769     1934.9     136.82      2.237    0.08999     2.7027
       1935     361.63    0.08197    -999.25     90.099     54.898    -999.25    0.54642   0.061395    0.12584     800.19     72.688     853.95    0.03582     2.4203     7.5947    0.07898    0.00357      754.2     835.31     7.2966       1935     136.82      2.237    0.08999     2.7039
     1935.2      361.7    0.08197    -999.25     90.099     54.898    -999.25    0.54642   0.061395    0.12585     800.15     72.062     853.91    0.03583     2.4203     7.6192    0.07995    0.00462     754.15     835.26     7.3205     1935.2     136.82      2.237    0.08995     2.7021
     1935.3      361.6    0.08197    -999.25     90.099     54.898    -999.25    0.54642   0.061395    0.12585     800.08     71.438     853.85    0.03585     2.4203     7.6505    0.08096    0.00572     754.08      835.2      7.351     1935.3     136.82      2.237     0.0899     2.7002
     1935.5     361.38    0.08197    -999.25     90.099     54.898    -999.25    0.54642   0.061395    0.12585     800.03      71.75     853.81    0.03585     2.4203     7.6843    0.08381     0.0088     754.03     835.15     7.3839     1935.5     136.82      2.237    0.08985     2.6949
     1935.6     361.13    0.08198    -999.25     90.099     54.898    -999.25    0.54642   0.061395    0.12585     800.04     72.125     853.82    0.03588     2.4203       7.75    0.08286    0.00777     754.03     835.16     7.4474     1935.6     136.82      2.237    0.08985     2.6967
     1935.8     331.24    0.08197    -999.25     90.099     54.898    -999.25    0.54642   0.061395    0.12585     787.26     72.125     843.37    0.03585     2.4203     7.6474    0.08233     0.0072     740.38        823     7.3525     1935.8     136.82      2.237    0.07873     2.6977
     1935.9      307.6    0.08197    -999.25     90.099     54.898    -999.25    0.54642   0.061395    0.12585     767.88     72.438     827.44    0.03583     2.4203       7.47    0.08145    0.00625     720.03     804.58     7.1843     1935.9     136.82      2.237    0.06328     2.6993
     1936.1     292.36    0.08365    -999.25     90.099     54.898    -999.25    0.54642   0.061395    0.12775     747.51     72.188     810.52    0.04971     2.4203     7.2883    0.08062    0.00535     698.93      785.1       7.01     1936.1     136.82      2.237    0.04829     2.7009
     1936.2        264    0.08418    -999.25     90.099     54.898    -999.25    0.54642   0.061395    0.12836     726.05     72.625     792.37     0.0526     2.4203     7.3111    0.07516   -0.00055     678.13     764.52     7.0354     1936.2     136.82      2.237    0.03442     2.7109
     1936.4     274.03    0.08417    -999.25     90.099     54.898    -999.25    0.54642   0.061395    0.12835     713.43     72.875     782.53    0.05257     2.4203     7.3705    0.07427   -0.00152      663.1     752.81     7.0869     1936.4     136.82      2.237    0.02729     2.7126
     1936.5     274.03    0.08417    -999.25     90.099     54.898    -999.25    0.54642   0.061395    0.12834     713.43     73.188     782.53    0.05256     2.4203     7.3863    0.07504   -0.00069      663.1     752.81     7.1024     1936.5     136.82      2.237    0.02729     2.7112
     1936.7     274.03    0.08417    -999.25     90.099     54.898    -999.25    0.54642   0.061395    0.12834     713.43      73.25     782.53    0.05256     2.4203     7.3863    0.08012    0.00481      663.1     752.81     7.1024     1936.7     136.82      2.237    0.02729     2.7018
     1936.9     274.03    0.08417    -999.25     90.099     54.898    -999.25    0.54642   0.061395    0.12834     713.43         73     782.53    0.05256     2.4203     7.3864    0.08178     0.0066      663.1     752.81     7.1024     1936.9     136.82      2.237    0.02729     2.6987
       1937     274.03    0.08417    -999.25     90.099     54.898    -999.25    0.54642   0.061395    0.12834     713.43     73.375     782.53    0.05256     2.4203     7.3863     0.0819    0.00674      663.1     752.81     7.1024       1937     136.82      2.237    0.02729     2.6985
     1937.2     274.03    0.08417    -999.25     90.099     54.898    -999.25    0.54642   0.061395    0.12834     713.43     73.312     782.53    0.05256     2.4203     7.3864    0.08105    0.00582      663.1     752.81     7.1024     1937.2     136.82      2.237    0.02729     2.7001
     1937.3     274.03    0.08417    -999.25     90.099     54.898    -999.25    0.54642   0.061395    0.12834     713.43       73.5     782.53    0.05256     2.4203     7.3863    0.08093    0.00568      663.1     752.81     7.1024     1937.3     136.82      2.237    0.02729     2.7003
     1937.5     274.03    0.08417    -999.25     90.099     54.898    -999.25    0.54642   0.061395    0.12834     713.43     73.188     782.53    0.05256     2.4203     7.3863     0.0808    0.00554      663.1     752.81     7.1024     1937.5     136.82      2.237    0.02729     2.7005
     1937.6     274.03    0.08417    -999.25     90.099     54.898    -999.25    0.54642   0.061395    0.12834     713.43     73.125     782.53    0.05256     2.4203     7.3863     541.68     585.94      663.1     752.81     7.1024     1937.6     136.82      2.237    0.02729    -999.25
     1937.8     274.03    0.08417    -999.25     90.099     54.898    -999.25    0.54642   0.061395    0.12834     713.43     73.188     782.53    0.05256     2.4203     7.3863     541.68     585.94      663.1     752.81     7.1024     1937.8     136.82      2.237    0.02729    -999.25
     1937.9     274.03    0.08417    -999.25     90.099     54.898    -999.25    0.54642   0.061395    0.12834     713.43     73.125     782.53    0.05256     2.4203     7.3864     541.68     585.94      663.1     752.81     7.1024     1937.9     136.82      2.237    0.02729    -999.25
     1938.1     274.03    0.08417    -999.25    -999.25    -999.25    -999.25    0.54642   0.061395    0.12834     713.43     73.438     782.53    0.05256     2.4203     7.3863     541.68     585.94      663.1     752.81     7.1024     1938.1     92.246      2.237    0.02729    -999.25
     1938.2     274.03    0.08417    -999.25    -999.25    -999.25    -999.25    0.54642   0.061395    0.12834     713.43     73.688     782.53    0.05256     2.4203     7.3863     541.68     585.94      663.1     752.81     7.1024     1938.2     92.246      2.237    0.02729    -999.25
