~Version ---------------------------------------------------
VERS.   2.0 : CWLS log ASCII Standard -VERSION 2.0
WRAP.    NO : One line per depth step
DLM . SPACE : Column Data Section Delimiter
~Well ------------------------------------------------------
STRT.m                     1.0668 : START DEPTH
STOP.m                  1939.1376 : STOP DEPTH
STEP.m                     0.1524 : STEP
NULL.                    -9999.25 : NULL VALUE
COMP. Elmworth Energy Corporation : COMPANY
WELL.               Kennetcook #2 : WELL
FLD .               Windsor Block : FIELD
LOC .     Lat = 45* 12' 34.237" N : LOCATION
PROV.                 Nova Scotia : PROVINCE
CNTY.                        None : COUNTY
STAT.                        None : STATE
CTRY.                          CA : COUNTRY
SRVC.                             : SERVICE COMPANY
DATE.  2016-03-23 16:07:07.010361 : DATE
UWI .     Long = 63* 45'24.460  W : UNIQUE WELL ID
API .                             : API NUMBER
LIC .                       P-129 : 
LONG.                        None : 
TOWN.                 63.75 Deg W : 
RANG.                      PD 176 : 
LATI.                        None : 
GDAT.                        None : 
SECT.                 45.20 Deg N : 
~Curves ----------------------------------------------------
DEPT    .m      : DEPTH
RLA1    .ohm.m  : HRLT Borehole Corrected Resistivity 1
NPHI_LIM.m3/m3  : Thermal Neutron Porosity (matrix Limestone)
RXO_HRLT.ohm.m  : 
DTS     .us/ft  : DTS
DT      .us/ft  : DT
HCAL    .in     : HRCC Cal. Caliper
DPHI_SAN.m3/m3  : Density Porosity (matrix Sandstone)
DRHO    .g/cm3  : HRDD Density Correction
NPHI_SAN.m3/m3  : Thermal Neutron Porosity (matrix Sandstone)
RLA3    .ohm.m  : HRLT Borehole Corrected Resistivity 3
SP      .mV     : SP
RLA5    .ohm.m  : HRLT Borehole Corrected Resistivity 5
NPHI_DOL.m3/m3  : Thermal Neutron Porosity (matrix Dolomite)
CALI    .in     : Caliper
RT_HRLT .ohm.m  : HRLT Computed True Resistivity
DPHI_DOL.m3/m3  : Density Porosity (matrix Dolomite)
DPHI_LIM.m3/m3  : Density Porosity (matrix Limestone)
RLA2    .ohm.m  : HRLT Borehole Corrected Resistivity 2
RLA4    .ohm.m  : HRLT Borehole Corrected Resistivity 4
RXOZ    .ohm.m  : MCFL Standard Resolution Invaded Zone Resistivity
GR      .gAPI   : Gamma-Ray
PEF     .       : Photoelectric Factor
RM_HRLT .ohm.m  : HRLT Mud Resistivity
RHOB    .g/cm3  : Bulk Density
~Params ----------------------------------------------------
EGL.   90.3 : 
EKB.   94.8 : 
TDD. 1935.0 : 
TDL. 1935.0 : 
~Other -----------------------------------------------------
~ASCII -----------------------------------------------------
# ...
     389.38     30.334    0.18637    -999.25     123.41     69.785    -999.25    0.03892   0.032874    0.23761     33.158       26.5     37.579    0.12955     8.8522     19.813    0.12344    0.05168     32.442     34.546     20.001     389.38     121.64     3.2039    0.12782     2.6216
     389.53     26.459    0.19281    -999.25     122.64     70.024    -999.25     0.0451   0.023678    0.24446     28.142     27.438     30.759    0.14143     8.8468     22.199    0.11379    0.04123     27.575     28.815     22.582     389.53     120.69     3.3704    0.12826     2.6395
     389.69     22.819    0.20758    -999.25     119.63     67.739    -999.25    0.04347   0.021074    0.25948     23.773     27.375     24.763    0.14886     8.8387      22.26    0.10783    0.03479     23.706     23.881     22.575     389.69     121.56     3.2696    0.12892     2.6505
     389.84     24.153    0.19775    -999.25     119.87     67.875    -999.25    0.04238   0.019114    0.24937     25.695      27.25     26.603    0.16863     8.8119     21.651    0.10194    0.02842     25.365     25.769     22.093     389.84     122.35     3.1854    0.12964     2.6614
     389.99     29.026    0.21764    -999.25     119.59     67.684    -999.25    0.02615   0.024523    0.26944     31.006     26.375     31.186    0.16497     8.8198     23.137    0.09945    0.02572     29.803       30.7     24.194     389.99     115.39     3.0151    0.13028      2.666
     390.14     41.485    0.21148    -999.25     117.97     66.459    -999.25    0.02122     0.0175    0.26324     43.698     26.625     43.749    0.14686     8.8038     26.533    0.08979    0.01527     42.438     43.224     30.296     390.14     110.82     3.0659     0.1305     2.6839
      390.3     48.998    0.17689    -999.25     118.35     66.382    -999.25    0.00814   0.014132    0.22793     48.499       26.5     48.434    0.13021     8.7796     31.721    0.08266    0.00756     48.774      47.95     42.962      390.3     111.05     3.3897    0.13102     2.6971
     390.45     47.203    0.18561    -999.25     118.81     67.712    -999.25    0.00889    0.01759    0.23708     44.013     26.688      43.15    0.13513     8.7639     40.523     0.0726   -0.00333     44.845     43.232     40.348     390.45     116.02     3.4744    0.13137     2.7157
      390.6     50.135    0.18979    -999.25     119.37     67.633    -999.25    0.00138   0.022573     0.2413     45.891       25.5     44.561    0.14055       8.75     37.435     0.0768    0.00121     46.574     44.828     36.886      390.6     118.76     3.3805    0.13148     2.7079
     390.75     43.438    0.19941    -999.25     119.61     66.862    -999.25    0.00993   0.017915    0.25108     39.425     25.562      37.99    0.14228     8.7473     38.095    0.08358    0.00855      40.07     38.389      37.04     390.75     114.35      3.295    0.13172     2.6954
     390.91     36.841    0.19318    -999.25     119.81     67.508    -999.25    0.01657   0.010581    0.24454      32.93     25.875     31.766    0.14075     8.7631     38.331    0.09295    0.01869      33.98     32.087     37.232     390.91     115.16     3.1981    0.13195      2.678
     391.06     35.934    0.20465    -999.25     120.36     68.541    -999.25    0.01332    0.01144    0.25641     31.686         27     30.629    0.14632     8.7689     34.904    0.09198    0.01764     32.927     30.945     33.606     391.06     112.73     3.4908    0.13189     2.6798
     391.21     37.143    0.21918    -999.25      120.6     69.416    -999.25    0.01261  0.0079808     0.2712     33.518     26.438     32.821    0.14315     8.7769     31.024    0.09092    0.01649      34.42     33.086     30.366     391.21     118.12     3.4448    0.13182     2.6818
     391.36     39.878    0.18527    -999.25      120.6      69.43    -999.25    0.00924  0.0076726    0.23651     35.854     25.562     35.519    0.13723     8.7824     29.309    0.08986    0.01535     36.276     35.691     28.956     391.36     118.58     3.6169    0.13149     2.6838
     391.52     39.752    0.19774    -999.25     120.22     69.404    -999.25    0.01406   0.009271    0.24944     37.363     25.188     36.734     0.1505     8.8091     26.401    0.09548    0.02143     37.164     37.107     27.248     391.52     120.86     3.2895    0.13141     2.6734
     391.67     28.687    0.20916    -999.25     120.01     69.561    -999.25    0.01008   0.015703    0.26096      29.08      25.25     28.847    0.15884     8.8038     22.822    0.10009    0.02641     28.327     29.092     26.099     391.67     118.65     3.2456      0.132     2.6648
     391.82     25.297    0.21397    -999.25     119.55     69.301    -999.25    0.01298   0.014843    0.26589     27.171       25.5     27.035    0.15843     8.8252     23.478    0.10352    0.03013     26.232     27.427     24.167     391.82     119.03     3.1567    0.13217     2.6585
     391.97     29.752    0.20057    -999.25     118.71     68.654    -999.25    0.01391   0.018308    0.25218     32.631         25      32.06    0.13482     8.8172     23.155    0.09951    0.02579     31.391     32.684     24.285     391.97     118.88     3.2137     0.1317     2.6659
     392.13     32.946    0.17289    -999.25     116.69     67.956    -999.25    0.01999   0.013946    0.22397      36.09     24.562     34.676    0.11604     8.8215     24.405     0.0967    0.02274     34.305     35.526     27.044     392.13     117.36     3.2593    0.13123     2.6711
     392.28     30.449    0.17587    -999.25     113.71     66.638    -999.25    0.02534   0.012173    0.22718     34.218      24.25     33.247    0.09618     8.8279     29.493    0.09707    0.02315     32.362     33.743     30.063     392.28     112.12     3.2045     0.1311     2.6704
     392.43     21.469    0.14049    -999.25      113.4     66.513    -999.25    0.03005   0.011064    0.19021      24.53     23.938     24.815    0.09194      8.812      27.82    0.09611    0.02211     23.483     24.875     29.306     392.43     107.56     3.3221    0.13172     2.6722
     392.58     20.892    0.16271    -999.25     111.62     66.053    -999.25    0.03721  0.0082581    0.21345     24.149     23.688      24.87    0.09136     8.8252     22.711    0.09439    0.02025     23.017     25.026     24.247     392.58     103.15     3.2057    0.13196     2.6754
     392.73     22.704    0.14086    -999.25     111.95     66.042    -999.25    0.03349  0.0076635     0.1905     25.959     23.625     27.092    0.08633     8.8226     22.397    0.08826    0.01362     24.242     27.149     23.647     392.73     98.039     2.9968    0.13165     2.6867
     392.89     25.746     0.1194    -999.25     112.13     66.284    -999.25    0.02248   0.010337    0.16776     29.152      23.75      30.98    0.07669     8.8387     23.817    0.08791    0.01324      26.75      30.64     24.759     392.89     93.934     2.7692    0.13134     2.6874
     393.04     23.778     0.1287    -999.25     112.78     65.857    -999.25    0.00853   0.014628    0.17762      27.03     22.562      29.23    0.07102     8.8495     23.121    0.09353    0.01932     24.884     28.553     24.632     393.04     91.636     2.7856    0.13145      2.677
     393.19     22.171    0.12322    -999.25     113.77     66.327    -999.25    0.00867   0.013229    0.17185     25.458     22.562     27.824    0.07808     8.8495      22.72    0.09942    0.02569     23.775     26.914     24.855     393.19     94.769     3.0776    0.13176     2.6661
     393.34     23.872    0.14969    -999.25     115.01     67.921    -999.25    0.01758   0.014647    0.19988     27.811     22.438     30.485    0.08363     8.8656     22.283     0.1046     0.0313     25.802     29.155     23.471     393.34        101     3.2677    0.13163     2.6565
      393.5     31.478    0.15894    -999.25     116.71      67.94    -999.25    0.02367   0.015284    0.20958     37.732     23.438     41.851    0.09629     8.8763     23.603    0.10664     0.0335     34.503     39.179     23.983      393.5     107.48     3.4267     0.1311     2.6527
