~Version ---------------------------------------------------
VERS.   2.0 : CWLS log ASCII Standard -VERSION 2.0
WRAP.    NO : One line per depth step
DLM . SPACE : Column Data Section Delimiter
~Well ------------------------------------------------------
STRT.m                     1.0668 : START DEPTH
STOP.m                  1939.1376 : STOP DEPTH
STEP.m                     0.1524 : STEP
NULL.                    -9999.25 : NULL VALUE
COMP. Elmworth Energy Corporation : COMPANY
WELL.               Kennetcook #2 : WELL
FLD .               Windsor Block : FIELD
LOC .     Lat = 45* 12' 34.237" N : LOCATION
PROV.                 Nova Scotia : PROVINCE
CNTY.                        None : COUNTY
STAT.                        None : STATE
CTRY.                          CA : COUNTRY
SRVC.                             : SERVICE COMPANY
DATE.  2016-03-23 16:07:07.010361 : DATE
UWI .     Long = 63* 45'24.460  W : UNIQUE WELL ID
API .                             : API NUMBER
LIC .                       P-129 : 
LONG.                        None : 
TOWN.                 63.75 Deg W : 
RANG.                      PD 176 : 
LATI.                        None : 
GDAT.                        None : 
SECT.                 45.20 Deg N : 
~Curves ----------------------------------------------------
DEPT    .m      : DEPTH
RLA1    .ohm.m  : HRLT Borehole Corrected Resistivity 1
NPHI_LIM.m3/m3  : Thermal Neutron Porosity (matrix Limestone)
RXO_HRLT.ohm.m  : 
DTS     .us/ft  : DTS
DT      .us/ft  : DT
HCAL    .in     : HRCC Cal. Caliper
DPHI_SAN.m3/m3  : Density Porosity (matrix Sandstone)
DRHO    .g/cm3  : HRDD Density Correction
NPHI_SAN.m3/m3  : Thermal Neutron Porosity (matrix Sandstone)
RLA3    .ohm.m  : HRLT Borehole Corrected Resistivity 3
SP      .mV     : SP
RLA5    .ohm.m  : HRLT Borehole Corrected Resistivity 5
NPHI_DOL.m3/m3  : Thermal Neutron Porosity (matrix Dolomite)
CALI    .in     : Caliper
RT_HRLT .ohm.m  : HRLT Computed True Resistivity
DPHI_DOL.m3/m3  : Density Porosity (matrix Dolomite)
DPHI_LIM.m3/m3  : Density Porosity (matrix Limestone)
RLA2    .ohm.m  : HRLT Borehole Corrected Resistivity 2
RLA4    .ohm.m  : HRLT Borehole Corrected Resistivity 4
RXOZ    .ohm.m  : MCFL Standard Resolution Invaded Zone Resistivity
GR      .gAPI   : Gamma-Ray
PEF     .       : Photoelectric Factor
RM_HRLT .ohm.m  : HRLT Mud Resistivity
RHOB    .g/cm3  : Bulk Density
~Params ----------------------------------------------------
EGL.   90.3 : 
EKB.   94.8 : 
TDD. 1935.0 : 
TDL. 1935.0 : 
~Other -----------------------------------------------------
~ASCII -----------------------------------------------------
# ...
     129.08     0.0279    0.20832    0.02289    -999.25    -999.25     4.3913    0.21101   0.023102    0.33184    0.02369     125.56    0.02289    0.19194     2.4438    0.02289    0.29631     0.2387    0.02459    0.02293    0.04266     129.08     64.044     9.6012    0.04544     2.3018
     129.24    0.02334    0.23739    0.02095    -999.25    -999.25     4.3913    0.23099   0.003581    0.40225    0.02051     125.81    0.02095    0.21878     2.4407    0.02095    0.31413    0.25797    0.02104    0.02015    0.04378     129.24     62.574     9.9883     0.0461     2.2689
     129.39    0.02332    0.27767    0.02113    -999.25    -999.25     4.3913    0.23141   0.016011    0.41239    0.02048     125.38    0.02113    0.25347     2.4407    0.02113     0.3145    0.25838    0.02093    0.02011    0.04527     129.39     59.775      9.869    0.04683     2.2682
     129.54      0.029     0.2677    0.02427    -999.25    -999.25     4.3913    0.23462   0.021601    0.36374    0.02474     125.31    0.02427     0.2446     2.4438    0.02427    0.31737    0.26148    0.02573    0.02401    0.04702     129.54     63.946      9.966    0.04765     2.2629
     129.69    0.01779     0.2123    0.01808    -999.25    -999.25     4.3913    0.23473    0.03066    0.27606    0.01629     125.81    0.01808    0.19592     2.4407    0.01808    0.31746    0.26158    0.01609     0.0164    0.04844     129.69     54.991     9.9476    0.04868     2.2627
     129.84    0.02988    0.16282    0.02381    -999.25    -999.25     4.3913    0.23582   0.043181    0.24095    0.02465     126.12    0.02381    0.15133     2.4438    0.02381    0.31844    0.26264     0.0256    0.02386    0.04988     129.84     50.709     10.756    0.04979     2.2609
        130    0.04972    0.13209    0.03634    -999.25    -999.25     4.3913    0.22186   0.074053    0.21583    0.04055        126    0.03634    0.12313     2.4407    0.03634    0.30598    0.24916    0.04338    0.03834    0.05198        130     43.295      10.95    0.05082     2.2839
     130.15    0.03151    0.14543    0.02558    -999.25    -999.25     4.3913     0.2099    0.10478    0.21555    0.02661     124.75    0.02558    0.13534     2.4461    0.02558    0.29532    0.23762     0.0278    0.02575    0.05512     130.15     43.518     10.405    0.05191     2.3037
      130.3    0.00195    0.15275    0.00921    -999.25    -999.25     4.3913    0.20578    0.12743    0.21865    0.00473     122.62    0.00921    0.14207     2.4438    0.00921    0.29164    0.23364    0.00342    0.00624    0.05744      130.3     44.078     9.2229    0.05312     2.3105
     130.45    0.02711    0.15626    0.02144    -999.25    -999.25     4.3913    0.20924    0.14344    0.21636    0.02356     121.94    0.02144    0.14528     2.4407    0.02144    0.29473    0.23699    0.02466    0.02216    0.05847     130.45     44.078     8.5763    0.05388     2.3048
     130.61      1e+05    0.12123    0.00141    -999.25    -999.25     4.3913    0.20852    0.16098    0.20259      1e+05     121.44    0.00141    0.11307     2.4399    0.00141    0.29408    0.23629      1e+05      1e+05    0.05862     130.61     44.635     8.5792    0.05459     2.3059
     130.76      1e+05    0.13022      1e+05    -999.25    -999.25     4.3913    0.19932    0.18218    0.19186      1e+05     121.19      1e+05    0.12127     2.4506      1e+05    0.28588    0.22741      1e+05      1e+05    0.05851     130.76     48.046     8.7995    0.05522     2.3211
     130.91    0.01669    0.13292    0.01879    -999.25    -999.25     4.3913    0.19214    0.19939    0.20288    0.01471     120.81    0.01879    0.12376     2.4407    0.01879    0.27948    0.22049    0.01371    0.01558    0.05823     130.91     50.769     8.6954    0.05555      2.333
     131.06      1e+05    0.15564      1e+05    -999.25    -999.25     4.3913    0.18492    0.21533    0.22923      1e+05     120.88      1e+05    0.14477     2.4399      1e+05    0.27303    0.21352      1e+05      1e+05    0.05777     131.06     57.401     8.6793    0.05602     2.3449
     131.22    0.05989    0.17169    0.03955    -999.25    -999.25     4.3913    0.18157     0.2253    0.25452    0.04671     122.25    0.03955    0.15957     2.4452    0.03955    0.27005    0.21029    0.05061    0.04349    0.05715     131.22     57.633     8.0977     0.0567     2.3504
     131.37      1e+05    0.18104      1e+05    -999.25    -999.25     4.3913    0.16971    0.23931    0.28646      1e+05     123.31      1e+05    0.16789     2.4438      1e+05    0.25947    0.19884      1e+05      1e+05    0.05637     131.37     55.806     8.0187    0.05726       2.37
     131.52    0.02386    0.20635    0.02323    -999.25    -999.25     4.3913    0.15701    0.25093    0.31643    0.02256     125.06    0.02323    0.19049     2.4461    0.02323    0.24815    0.18659    0.02365    0.02232    0.05548     131.52     47.928     7.3208    0.05759     2.3909
     131.67    0.02249      0.234    0.01994    -999.25    -999.25     4.3913    0.14345    0.25561    0.35199    0.01938      125.5    0.01994    0.21487     2.4399    0.01994    0.23605     0.1735    0.01946     0.0195     0.0543     131.67     44.453     7.0411    0.05807     2.4133
     131.83    0.14473    0.26338    0.13235    -999.25    -999.25     4.3913    0.11846    0.25049    0.37224    0.11648        126    0.09434    0.24027     2.4452      0.103    0.21376    0.14939    0.12339    0.10738    0.05237     131.83     39.986      6.376     0.0573     2.4545
     131.98      1e+05    0.29837      1e+05    -999.25    -999.25     4.3913    0.08355    0.23711    0.33652      1e+05     126.25      1e+05    0.27129     2.4416      1e+05    0.18263    0.11571      1e+05      1e+05    0.05026     131.98     42.071     5.9398    0.05827     2.5121
     132.13    0.02353      0.219    0.02104    -999.25    -999.25     4.3913    0.04716    0.21777    0.30724    0.02038     126.19    0.02104    0.19974     2.4438    0.02104    0.15017    0.08059    0.02098    0.02013    0.04856     132.13     38.364     5.8533    0.05941     2.5722
     132.28    0.03181    0.24517    0.02571    -999.25    -999.25     4.3913    0.02417     0.1965    0.29283    0.02671     125.88    0.02571      0.226     2.4461    0.02571    0.12966    0.05841    0.02806    0.02581    0.04732     132.28     40.394     6.2995       0.06     2.6101
     132.44    0.03083    0.23477    0.02521    -999.25    -999.25     4.3913    0.02539    0.16621     0.2916    0.02593     125.25    0.02521    0.21744     2.4407    0.02521    0.13076    0.05959    0.02712    0.02518    0.04646     132.44     39.468     6.4703    0.06011     2.6081
     132.59    0.03303    0.17653    0.02677    -999.25    -999.25     4.3913    0.05432    0.11171    0.29649    0.02784     124.81    0.02677    0.16352     2.4438    0.02677    0.15656     0.0875    0.02915     0.0269     0.0452     132.59      42.48     6.4212    0.06011     2.5604
     132.74     0.0337    0.18108    0.02706    -999.25    -999.25     4.3913    0.08613    0.05883      0.257    0.02847     125.31    0.02706    0.16717     2.4461    0.02706    0.18492    0.11819    0.02993    0.02742    0.04406     132.74     45.322      6.149    0.06007     2.5079
     132.89    0.03055    0.19028    0.02528    -999.25    -999.25     4.3913    0.11379   0.020492    0.28802    0.02604     125.88    0.02528    0.17602     2.4438    0.02528    0.20959    0.14488    0.02724     0.0253    0.04344     132.89     45.322     5.9143    0.05987     2.4623
     133.05    0.03096    0.22075    0.02523    -999.25    -999.25     4.3913    0.11854    0.02443    0.30767    0.02606        126    0.02523    0.20332     2.4461    0.02523    0.21383    0.14946    0.02724    0.02529    0.04353     133.05     42.774     5.5715    0.05962     2.4544
      133.2    0.03234    0.26511    0.02624    -999.25    -999.25     4.3913    0.12252   0.032807    0.35281    0.02727        126    0.02624    0.24467     2.4461    0.02624    0.21738    0.15331    0.02853    0.02637    0.04429      133.2      38.51     5.7116    0.05931     2.4478
