~Version ---------------------------------------------------
VERS.   2.0 : CWLS log ASCII Standard -VERSION 2.0
WRAP.    NO : One line per depth step
DLM . SPACE : Column Data Section Delimiter
~Well ------------------------------------------------------
STRT.m                     1.0668 : START DEPTH
STOP.m                  1939.1376 : STOP DEPTH
STEP.m                     0.1524 : STEP
NULL.                    -9999.25 : NULL VALUE
COMP. Elmworth Energy Corporation : COMPANY
WELL.               Kennetcook #2 : WELL
FLD .               Windsor Block : FIELD
LOC .     Lat = 45* 12' 34.237" N : LOCATION
PROV.                 Nova Scotia : PROVINCE
CNTY.                        None : COUNTY
STAT.                        None : STATE
CTRY.                          CA : COUNTRY
SRVC.                             : SERVICE COMPANY
DATE.  2016-03-23 16:07:07.010361 : DATE
UWI .     Long = 63* 45'24.460  W : UNIQUE WELL ID
API .                             : API NUMBER
LIC .                       P-129 : 
LONG.                        None : 
TOWN.                 63.75 Deg W : 
RANG.                      PD 176 : 
LATI.                        None : 
GDAT.                        None : 
SECT.                 45.20 Deg N : 
~Curves ----------------------------------------------------
DEPT    .m      : DEPTH
RLA1    .ohm.m  : HRLT Borehole Corrected Resistivity 1
NPHI_LIM.m3/m3  : Thermal Neutron Porosity (matrix Limestone)
RXO_HRLT.ohm.m  : 
DTS     .us/ft  : DTS
DT      .us/ft  : DT
HCAL    .in     : HRCC Cal. Caliper
DPHI_SAN.m3/m3  : Density Porosity (matrix Sandstone)
DRHO    .g/cm3  : HRDD Density Correction
NPHI_SAN.m3/m3  : Thermal Neutron Porosity (matrix Sandstone)
RLA3    .ohm.m  : HRLT Borehole Corrected Resistivity 3
SP      .mV     : SP
RLA5    .ohm.m  : HRLT Borehole Corrected Resistivity 5
NPHI_DOL.m3/m3  : Thermal Neutron Porosity (matrix Dolomite)
CALI    .in     : Caliper
RT_HRLT .ohm.m  : HRLT Computed True Resistivity
DPHI_DOL.m3/m3  : Density Porosity (matrix Dolomite)
DPHI_LIM.m3/m3  : Density Porosity (matrix Limestone)
RLA2    .ohm.m  : HRLT Borehole Corrected Resistivity 2
RLA4    .ohm.m  : HRLT Borehole Corrected Resistivity 4
RXOZ    .ohm.m  : MCFL Standard Resolution Invaded Zone Resistivity
GR      .gAPI   : Gamma-Ray
PEF     .       : Photoelectric Factor
RM_HRLT .ohm.m  : HRLT Mud Resistivity
RHOB    .g/cm3  : Bulk Density
~Params ----------------------------------------------------
EGL.   90.3 : 
EKB.   94.8 : 
TDD. 1935.0 : 
TDL. 1935.0 : 
~Other -----------------------------------------------------
~ASCII -----------------------------------------------------
     1.0668     0.0321    0.33647    0.02558    -999.25    -999.25     4.3913    0.15748    0.19423     0.4651    0.02675     120.12    0.02558    0.30186     2.4438    0.02558     0.2591    0.19844    0.02794    0.02562    0.05761     1.0668     46.699     3.5864    0.05501     2.3901
     1.2192     0.0321    0.33647    0.02558    -999.25    -999.25     4.3913    0.15748    0.19423     0.4651    0.02675     120.12    0.02558    0.30186     2.4438    0.02558     0.2591    0.19844    0.02794    0.02562    0.05761     1.2192     46.699     3.5864    0.05501     2.3901
     1.3716     0.0321    0.33647    0.02558    -999.25    -999.25     4.3913    0.15748    0.19423     0.4651    0.02675     120.12    0.02558    0.30186     2.4438    0.02558     0.2591    0.19844    0.02794    0.02562    0.05761     1.3716     46.699     3.5864    0.05501     2.3901
      1.524     0.0321    0.33647    0.02558    -999.25    -999.25     4.3913    0.15748    0.19423     0.4651    0.02675     120.12    0.02558    0.30186     2.4438    0.02558     0.2591    0.19844    0.02794    0.02562    0.05761      1.524     46.699     3.5864    0.05501     2.3901
     1.6764     0.0321    0.33647    0.02558    -999.25    -999.25     4.3913    0.15748    0.19423     0.4651    0.02675     120.12    0.02558    0.30186     2.4438    0.02558     0.2591    0.19844    0.02794    0.02562    0.05761     1.6764     46.699     3.5864    0.05501     2.3901
     1.8288     0.0321    0.33647    0.02558    -999.25    -999.25     4.3913    0.15748    0.19423     0.4651    0.02675     120.12    0.02558    0.30186     2.4438    0.02558     0.2591    0.19844    0.02794    0.02562    0.05761     1.8288     46.699     3.5864    0.05501     2.3901
     1.9812     0.0321    0.33647    0.02558    -999.25    -999.25     4.3913    0.15748    0.19423     0.4651    0.02675     120.12    0.02558    0.30186     2.4438    0.02558     0.2591    0.19844    0.02794    0.02562    0.05761     1.9812     46.699     3.5864    0.05501     2.3901
     2.1336     0.0321    0.33647    0.02558    -999.25    -999.25     4.3913    0.15748    0.19423     0.4651    0.02675     120.12    0.02558    0.30186     2.4438    0.02558     0.2591    0.19844    0.02794    0.02562    0.05761     2.1336     46.699     3.5864    0.05501     2.3901
      2.286     0.0321    0.33647    0.02558    -999.25    -999.25     4.3913    0.15748    0.19423     0.4651    0.02675     120.12    0.02558    0.30186     2.4438    0.02558     0.2591    0.19844    0.02794    0.02562    0.05761      2.286     46.699     3.5864    0.05501     2.3901
     2.4384     0.0321    0.33647    0.02558    -999.25    -999.25     4.3913    0.15748    0.19423     0.4651    0.02675     120.12    0.02558    0.30186     2.4438    0.02558     0.2591    0.19844    0.02794    0.02562    0.05761     2.4384     46.699     3.5864    0.05501     2.3901
     2.5908     0.0321    0.33647    0.02558    -999.25    -999.25     4.3913    0.15748    0.19423     0.4651    0.02675     120.12    0.02558    0.30186     2.4438    0.02558     0.2591    0.19844    0.02794    0.02562    0.05761     2.5908     46.699     3.5864    0.05501     2.3901
     2.7432     0.0321    0.33647    0.02558    -999.25    -999.25     4.3913    0.15748    0.19423     0.4651    0.02675     120.12    0.02558    0.30186     2.4438    0.02558     0.2591    0.19844    0.02794    0.02562    0.05761     2.7432     46.699     3.5864    0.05501     2.3901
     2.8956     0.0321    0.33647    0.02558    -999.25    -999.25     4.3913    0.15748    0.19423     0.4651    0.02675     120.12    0.02558    0.30186     2.4438    0.02558     0.2591    0.19844    0.02794    0.02562    0.05761     2.8956     46.699     3.5864    0.05501     2.3901
      3.048     0.0321    0.33647    0.02558    -999.25    -999.25     4.3913    0.15748    0.19423     0.4651    0.02675     120.12    0.02558    0.30186     2.4438    0.02558     0.2591    0.19844    0.02794    0.02562    0.05761      3.048     46.699     3.5864    0.05501     2.3901
     3.2004     0.0321    0.33647    0.02558    -999.25    -999.25     4.3913    0.15748    0.19423     0.4651    0.02675     120.12    0.02558    0.30186     2.4438    0.02558     0.2591    0.19844    0.02794    0.02562    0.05761     3.2004     46.699     3.5864    0.05501     2.3901
     3.3528     0.0321    0.33647    0.02558    -999.25    -999.25     4.3913    0.15748    0.19423     0.4651    0.02675     120.12    0.02558    0.30186     2.4438    0.02558     0.2591    0.19844    0.02794    0.02562    0.05761     3.3528     46.699     3.5864    0.05501     2.3901
     3.5052     0.0321    0.33647    0.02558    -999.25    -999.25     4.3913    0.15748    0.19423     0.4651    0.02675     120.12    0.02558    0.30186     2.4438    0.02558     0.2591    0.19844    0.02794    0.02562    0.05761     3.5052     46.699     3.5864    0.05501     2.3901
     3.6576     0.0321    0.33647    0.02558    -999.25    -999.25     4.3913    0.15748    0.19423     0.4651    0.02675     120.12    0.02558    0.30186     2.4438    0.02558     0.2591    0.19844    0.02794    0.02562    0.05761     3.6576     46.699     3.5864    0.05501     2.3901
       3.81     0.0321    0.33647    0.02558    -999.25    -999.25     4.3913    0.15748    0.19423     0.4651    0.02675     120.12    0.02558    0.30186     2.4438    0.02558     0.2591    0.19844    0.02794    0.02562    0.05761       3.81     46.699     3.5864    0.05501     2.3901
     3.9624     0.0321    0.33647    0.02558    -999.25    -999.25     4.3913    0.15748    0.19423     0.4651    0.02675     120.12    0.02558    0.30186     2.4438    0.02558     0.2591    0.19844    0.02794    0.02562    0.05761     3.9624     46.699     3.5864    0.05501     2.3901
     4.1148     0.0321    0.33647    0.02558    -999.25    -999.25     4.3913    0.15748    0.19423     0.4651    0.02675     120.12    0.02558    0.30186     2.4438    0.02558     0.2591    0.19844    0.02794    0.02562    0.05761     4.1148     46.699     3.5864    0.05501     2.3901
     4.2672     0.0321    0.33647    0.02558    -999.25    -999.25     4.3913    0.15748    0.19423     0.4651    0.02675     120.12    0.02558    0.30186     2.4438    0.02558     0.2591    0.19844    0.02794    0.02562    0.05761     4.2672     46.699     3.5864    0.05501     2.3901
     4.4196     0.0321    0.33647    0.02558    -999.25    -999.25     4.3913    0.15748    0.19423     0.4651    0.02675     120.12    0.02558    0.30186     2.4438    0.02558     0.2591    0.19844    0.02794    0.02562    0.05761     4.4196     46.699     3.5864    0.05501     2.3901
      4.572     0.0321    0.33647    0.02558    -999.25    -999.25     4.3913    0.15748    0.19423     0.4651    0.02675     120.12    0.02558    0.30186     2.4438    0.02558     0.2591    0.19844    0.02794    0.02562    0.05761      4.572     46.699     3.5864    0.05501     2.3901
     4.7244     0.0321    0.33647    0.02558    -999.25    -999.25     4.3913    0.15748    0.19423     0.4651    0.02675     120.12    0.02558    0.30186     2.4438    0.02558     0.2591    0.19844    0.02794    0.02562    0.05761     4.7244     46.699     3.5864    0.05501     2.3901
     4.8768     0.0321    0.33647    0.02558    -999.25    -999.25     4.3913    0.15748    0.19423     0.4651    0.02675     120.12    0.02558    0.30186     2.4438    0.02558     0.2591    0.19844    0.02794    0.02562    0.05761     4.8768     46.699     3.5864    0.05501     2.3901
     5.0292     0.0321    0.33647    0.02558    -999.25    -999.25     4.3913    0.15748    0.19423     0.4651    0.02675     120.12    0.02558    0.30186     2.4438    0.02558     0.2591    0.19844    0.02794    0.02562    0.05761     5.0292     46.699     3.5864    0.05501     2.3901
     5.1816     0.0321    0.33647    0.02558    -999.25    -999.25     4.3913    0.15748    0.19423     0.4651    0.02675     120.12    0.02558    0.30186     2.4438    0.02558     0.2591    0.19844    0.02794    0.02562    0.05761     5.1816     46.699     3.5864    0.05501     2.3901
