~Version ---------------------------------------------------
VERS.   2.0 : CWLS log ASCII Standard -VERSION 2.0
WRAP.    NO : One line per depth step
DLM . SPACE : Column Data Section Delimiter
~Well ------------------------------------------------------
STRT.m                     1.0668 : START DEPTH
STOP.m                  1939.1376 : STOP DEPTH
STEP.m                     0.1524 : STEP
NULL.                    -9999.25 : NULL VALUE
COMP. Elmworth Energy Corporation : COMPANY
WELL.               Kennetcook #2 : WELL
FLD .               Windsor Block : FIELD
LOC .     Lat = 45* 12' 34.237" N : LOCATION
PROV.                 Nova Scotia : PROVINCE
CNTY.                        None : COUNTY
STAT.                        None : STATE
CTRY.                          CA : COUNTRY
SRVC.                             : SERVICE COMPANY
DATE.  2016-03-23 16:07:07.010361 : DATE
UWI .     Long = 63* 45'24.460  W : UNIQUE WELL ID
API .                             : API NUMBER
LIC .                       P-129 : 
LONG.                        None : 
TOWN.                 63.75 Deg W : 
RANG.                      PD 176 : 
LATI.                        None : 
GDAT.                        None : 
SECT.                 45.20 Deg N : 
~Curves ----------------------------------------------------
DEPT    .m      : DEPTH
RLA1    .ohm.m  : HRLT Borehole Corrected Resistivity 1
NPHI_LIM.m3/m3  : Thermal Neutron Porosity (matrix Limestone)
RXO_HRLT.ohm.m  : 
DTS     .us/ft  : DTS
DT      .us/ft  : DT
HCAL    .in     : HRCC Cal. Caliper
DPHI_SAN.m3/m3  : Density Porosity (matrix Sandstone)
DRHO    .g/cm3  : HRDD Density Correction
NPHI_SAN.m3/m3  : Thermal Neutron Porosity (matrix Sandstone)
RLA3    .ohm.m  : HRLT Borehole Corrected Resistivity 3
SP      .mV     : SP
RLA5    .ohm.m  : HRLT Borehole Corrected Resistivity 5
NPHI_DOL.m3/m3  : Thermal Neutron Porosity (matrix Dolomite)
CALI    .in     : Caliper
RT_HRLT .ohm.m  : HRLT Computed True Resistivity
DPHI_DOL.m3/m3  : Density Porosity (matrix Dolomite)
DPHI_LIM.m3/m3  : Density Porosity (matrix Limestone)
RLA2    .ohm.m  : HRLT Borehole Corrected Resistivity 2
RLA4    .ohm.m  : HRLT Borehole Corrected Resistivity 4
RXOZ    .ohm.m  : MCFL Standard Resolution Invaded Zone Resistivity
GR      .gAPI   : Gamma-Ray
PEF     .       : Photoelectric Factor
RM_HRLT .ohm.m  : HRLT Mud Resistivity
RHOB    .g/cm3  : Bulk Density
~Params ----------------------------------------------------
EGL.   90.3 : 
EKB.   94.8 : 
TDD. 1935.0 : 
TDL. 1935.0 : 
~Other -----------------------------------------------------
~ASCII -----------------------------------------------------
# ...
     773.43     1144.9   -0.00047    -999.25     93.779     51.331    -999.25   -0.19675  0.0038698    0.02676      43933     9.9375      1e+05   -0.00972     8.2541     3931.2   -0.07913   -0.16748      28831      84951     4306.1     773.43     9.1212     5.5897    0.13749     2.9964
     773.58     1160.6    0.00024    -999.25     93.746     51.398    -999.25   -0.19833  0.0038869    0.02755      59094     10.312      1e+05   -0.00957     8.2329     4193.5   -0.08566   -0.17454      39130      1e+05     4381.1     773.58     9.1973     5.1225    0.13882     3.0085
     773.73     1192.3    0.00354    -999.25     93.736     51.433    -999.25   -0.19788  0.0041685    0.03123      63207       10.5      1e+05   -0.00925     8.2312     4283.8   -0.08538   -0.17425      30425      1e+05       4482     773.73     8.8172     4.7584    0.14016      3.008
     773.89     1027.9    0.00314    -999.25     93.831     51.781    -999.25    -0.2015  0.0049155     0.0309      64512     10.312      1e+05   -0.00962     8.2265     4281.9   -0.07562   -0.16368      28411      1e+05     4484.5     773.89     7.9811     5.1772    0.13979     2.9899
     774.04     1046.4    0.00091    -999.25     93.394     51.826    -999.25   -0.19525  0.0022758    0.02842      48640     9.9375      1e+05   -0.00975     8.2197     3727.4    -0.0689   -0.15641      31652      1e+05       3912     774.04      7.829     5.7945    0.13783     2.9775
     774.19     1053.3   -0.00258    -999.25     93.394     51.826    -999.25   -0.18487 -0.00014496    0.02512      21405         10      65433   -0.00878      8.224     3143.3    -0.0675   -0.15489      14802      50585     3243.1     774.19     8.5132     5.5826    0.13323     2.9749
     774.34     996.35    0.00379    -999.25     93.695     51.841    -999.25    -0.1922   0.003834    0.03312      12692     10.312      28939   -0.00563     8.1996     2542.9   -0.06135   -0.14824     7659.2      27487     2714.6     774.34     13.758     4.9085    0.13166     2.9635
      774.5     276.71    0.02205    -999.25     92.613       52.3    -999.25   -0.18448 0.00046313    0.05463     595.23     10.375      868.3    0.00317     8.1936     190.92   -0.05413   -0.14043     366.64     977.03     199.27      774.5      24.78      4.652    0.13227     2.9501
     774.65     90.337    0.04984    -999.25     91.798     51.911    -999.25   -0.16213 -0.0024897    0.08704     183.93     10.312     199.89    0.01418     8.1838     97.809   -0.04528   -0.13086     103.69     233.53     130.86     774.65     36.485     4.8681    0.13431     2.9338
      774.8     134.57    0.07048    -999.25     92.027     51.449    -999.25   -0.15193 -0.0022289    0.11116     316.36       9.75     287.34    0.01762     8.1537     114.32   -0.04032    -0.1255     182.56      343.4     128.95      774.8     43.198     4.7407    0.13739     2.9246
     774.95     273.79    0.05098    -999.25     92.642     52.494    -999.25   -0.14176 -0.0010434    0.09117     794.11        9.5     638.64    0.01866     8.1462     237.73   -0.03484   -0.11957     529.03     755.43     244.91     774.95     42.982     4.4807    0.13851     2.9145
     775.11     216.58    0.04722    -999.25     93.888     52.819    -999.25   -0.13785  0.0029998    0.08806     654.24      9.375     508.82    0.02457     8.1462     91.361   -0.01422   -0.09725     516.38     603.81     96.322     775.11     44.427     4.1133    0.13807     2.8763
     775.26     117.53    0.11318    -999.25     93.593     53.046    -999.25   -0.11311  0.0057234    0.16006     265.21        9.5     201.24    0.05787     8.1452     43.713    0.01546   -0.06515      260.1     237.72     46.385     775.26     48.508     3.7204    0.13671     2.8214
     775.41     110.06    0.18675    -999.25     93.829     53.212    -999.25   -0.09259  0.0061138    0.23847     207.96     9.5625     158.06    0.10346     8.1462     28.319    0.04504   -0.03315      200.1     187.97     29.438     775.41     61.113     3.2722    0.13615     2.7667
     775.56     104.88     0.2085    -999.25     93.866     52.982    -999.25   -0.08549  0.0063452    0.26103     184.06     9.3125     139.32    0.11432     8.1537     27.385    0.04787   -0.03008     129.67     165.12     28.079     775.56     72.971     3.3136    0.13719     2.7614
     775.72     95.989    0.15334    -999.25     93.726     52.517    -999.25   -0.09388  0.0083435    0.20359     179.71     8.5625     147.55    0.07435     8.1637     36.972    0.03223     -0.047     112.89     175.74     37.288     775.72     74.871     3.3099    0.13796     2.7904
     775.87     144.81    0.09136    -999.25     93.695     51.576    -999.25   -0.12274  0.0099762    0.13636     289.63          9     305.45    0.03947     8.1018     65.455    0.00648   -0.07486     215.24     367.06     65.992     775.87     65.116     3.8003     0.1401      2.838
     776.02     208.66    0.07061    -999.25     93.872     51.137    -999.25   -0.15109  0.0095956    0.11172     393.18      9.125     511.27    0.01906     8.0968      168.9   -0.01295   -0.09588     323.37     606.83     175.33     776.02     45.985     3.8833    0.14265      2.874
     776.17     792.06    0.05234    -999.25     96.137     51.234    -999.25   -0.18205  0.0074109    0.08905     1593.7     9.4375     2206.4    0.00572     8.1174     293.31   -0.03396   -0.11861     1074.9     2441.2      295.5     776.17     30.783      4.374    0.14069     2.9128
     776.33     1459.5    0.00036    -999.25     96.394     51.314    -999.25   -0.19008  0.0032001    0.02973      17703      8.875      33380   -0.00656     8.1319     2847.8   -0.04538   -0.13097      10146      31805     2912.7     776.33     17.639     4.4704     0.1398      2.934
     776.48     1470.3    -0.0185    -999.25     96.431     51.499    -999.25   -0.20897  0.0034528     0.0067      14225      9.375      30000   -0.01321     8.1437     3717.9   -0.05301   -0.13922      10329      22978     3661.6     776.48     12.295     4.3305    0.13761     2.9481
     776.63     1564.2   -0.01344    -999.25     96.576     51.476    -999.25   -0.21525   0.003222    0.01086      16142       9.75      40680   -0.01404     8.1319     3837.4   -0.05419    -0.1405      11410      26456     3772.7     776.63     10.166     4.5119     0.1344     2.9503
     776.78     1564.3   -0.00651    -999.25     96.676     51.711    -999.25   -0.21406    0.00371    0.01819      20631     10.562      54780   -0.01352     8.1261     3195.3   -0.05669   -0.14321      14212      35757     3137.3     776.78     9.1973     4.9484    0.13595     2.9549
     776.94     1717.6   -0.00174    -999.25     96.561     51.564    -999.25   -0.20686  0.0073565    0.02342      24069       10.5      83296   -0.01269     8.1201     2838.6   -0.06323   -0.15028      20532      42089     2724.9     776.94     9.1086     4.7851    0.13547      2.967
     777.09     1754.2   -0.00863    -999.25     96.372     51.615    -999.25   -0.21287   0.016985     0.0164      43633     10.375      1e+05   -0.01275      8.111     2971.7   -0.06584    -0.1531      34715      79311     2807.2     777.09     8.6525     4.9836    0.13536     2.9718
     777.24     1828.2   -0.00608    -999.25      94.26     51.603    -999.25   -0.20572   0.010676    0.01918      16351     10.562      42047   -0.01174     8.1135     3581.3   -0.06572   -0.15297      17609      21799     3168.1     777.24     9.1846      4.871    0.13637     2.9716
     777.39       1883   -0.00301    -999.25     94.241     51.523    -999.25     -0.203  0.0089132    0.02308      10267     11.062      26094   -0.01107     8.1026     4051.3   -0.06574     -0.153      12656      11722     3589.6     777.39     9.7206     5.6886    0.13395     2.9716
     777.54     1931.2    0.00125    -999.25     94.166     51.423    -999.25    -0.1824  0.0016699    0.02787      26148     11.188      85476     -0.011     8.1174     4187.4    -0.0637   -0.15079      34677      34063     3676.7     777.54     9.4925     5.8647    0.13464     2.9679
