~Version ---------------------------------------------------
VERS.   2.0 : CWLS log ASCII Standard -VERSION 2.0
WRAP.    NO : One line per depth step
DLM . SPACE : Column Data Section Delimiter
~Well ------------------------------------------------------
STRT.m                     1.0668 : START DEPTH
STOP.m                  1939.1376 : STOP DEPTH
STEP.m                     0.1524 : STEP
NULL.                    -9999.25 : NULL VALUE
COMP. Elmworth Energy Corporation : COMPANY
WELL.               Kennetcook #2 : WELL
FLD .               Windsor Block : FIELD
LOC .     Lat = 45* 12' 34.237" N : LOCATION
PROV.                 Nova Scotia : PROVINCE
CNTY.                        None : COUNTY
STAT.                        None : STATE
CTRY.                          CA : COUNTRY
SRVC.                             : SERVICE COMPANY
DATE.  2016-03-23 16:07:07.010361 : DATE
UWI .     Long = 63* 45'24.460  W : UNIQUE WELL ID
API .                             : API NUMBER
LIC .                       P-129 : 
LONG.                        None : 
TOWN.                 63.75 Deg W : 
RANG.                      PD 176 : 
LATI.                        None : 
GDAT.                        None : 
SECT.                 45.20 Deg N : 
~Curves ----------------------------------------------------
DEPT    .m      : DEPTH
RLA1    .ohm.m  : HRLT Borehole Corrected Resistivity 1
NPHI_LIM.m3/m3  : Thermal Neutron Porosity (matrix Limestone)
RXO_HRLT.ohm.m  : 
DTS     .us/ft  : DTS
DT      .us/ft  : DT
HCAL    .in     : HRCC Cal. Caliper
DPHI_SAN.m3/m3  : Density Porosity (matrix Sandstone)
DRHO    .g/cm3  : HRDD Density Correction
NPHI_SAN.m3/m3  : Thermal Neutron Porosity (matrix Sandstone)
RLA3    .ohm.m  : HRLT Borehole Corrected Resistivity 3
SP      .mV     : SP
RLA5    .ohm.m  : HRLT Borehole Corrected Resistivity 5
NPHI_DOL.m3/m3  : Thermal Neutron Porosity (matrix Dolomite)
CALI    .in     : Caliper
RT_HRLT .ohm.m  : HRLT Computed True Resistivity
DPHI_DOL.m3/m3  : Density Porosity (matrix Dolomite)
DPHI_LIM.m3/m3  : Density Porosity (matrix Limestone)
RLA2    .ohm.m  : HRLT Borehole Corrected Resistivity 2
RLA4    .ohm.m  : HRLT Borehole Corrected Resistivity 4
RXOZ    .ohm.m  : MCFL Standard Resolution Invaded Zone Resistivity
GR      .gAPI   : Gamma-Ray
PEF     .       : Photoelectric Factor
RM_HRLT .ohm.m  : HRLT Mud Resistivity
RHOB    .g/cm3  : Bulk Density
~Params ----------------------------------------------------
EGL.   90.3 : 
EKB.   94.8 : 
TDD. 1935.0 : 
TDL. 1935.0 : 
~Other -----------------------------------------------------
~ASCII -----------------------------------------------------
# ...
     1161.7     11.799    0.06997    -999.25      100.6     65.574    -999.25    0.08821   0.056592     0.1121     12.677     21.438     14.311    0.01926     9.0948     11.277    0.14699    0.07716     12.012     13.543     11.805     1161.7     23.959      2.235    0.13057     2.5781
     1161.9     8.7268    0.07295    -999.25     100.54     65.565    -999.25    0.04452   0.049969     0.1151     9.2619     21.812     10.398    0.02343     8.9712     9.3097    0.13945    0.06899     8.7886     9.8968       9.81     1161.9     26.883     2.3477    0.13092      2.592
     1162.1      8.241    0.07176    -999.25     100.65      64.43    -999.25    0.05258    0.01322    0.11431     8.8404     22.562     9.7129    0.02332     8.9796     9.9222    0.13975    0.06932     8.2423     9.2526     10.512       1162     31.574     2.2188    0.12949     2.5915
     1162.2     11.565    0.07322    -999.25     101.04      65.18    -999.25    0.05923   0.001038     0.1159     12.594     22.562     13.928    0.02639     8.9796     10.471    0.14396    0.07387     11.755     13.308     10.838     1162.2     35.082     2.1461    0.12723     2.5837
     1162.4     10.192    0.07727    -999.25     102.27     65.042    -999.25    0.05589  0.0069469    0.12075     10.956     22.375     12.102    0.02675     8.9782     11.574     0.1494    0.07976     10.351     11.589     12.204     1162.4     33.913      2.095    0.12602     2.5736
     1162.5       9.55     0.0834    -999.25     105.99      65.13    -999.25    0.07451    0.02166    0.12737     10.412     22.438     11.491    0.02753     9.0273      11.54    0.15214    0.08273     9.8699     11.007     11.558     1162.5     30.039     2.2067    0.12451     2.5685
     1162.7     8.9435    0.08672    -999.25     106.15     65.011    -999.25    0.12504   0.027725    0.13098     9.7937     23.062     10.769    0.02601     9.1301     10.386    0.15574    0.08662     9.2991     10.338     10.834     1162.7     27.846     2.1769    0.12335     2.5619
     1162.8     8.3885    0.07584    -999.25      104.5     65.026    -999.25     0.1812   0.028304    0.11906     9.0484     23.688     9.9414    0.02557     9.5528     10.027    0.15862    0.08973     8.4733     9.5132      10.64     1162.8     26.312      2.285    0.12216     2.5566
       1163     9.0215    0.08118    -999.25     102.78     65.591    -999.25     0.2213   0.061161    0.12475     9.7376      23.75     10.779    0.02634     9.8458     10.356    0.16252    0.09395     9.1572     10.258     10.923       1163     26.019     2.2735    0.12125     2.5493
     1163.1     8.8627     0.0812    -999.25     106.05     65.479    -999.25    0.23034   0.068552    0.12471     9.3041     23.688     10.428    0.02808     9.9131     10.542    0.16286    0.09433     8.9464     9.8708     11.113     1163.1     27.481     2.2208     0.1214     2.5487
     1163.3     9.9972    0.08365    -999.25     106.22     65.638    -999.25    0.21749   0.062104    0.12732     10.314     24.062      11.73    0.02938     9.9612     10.311     0.1565    0.08744     10.002     11.067     10.698     1163.3     30.174      2.086    0.12111     2.5605
     1163.4     12.475     0.0734    -999.25     104.68     65.484    -999.25    0.16905   0.096339    0.11652     12.903     24.938     14.699    0.03427      9.277     11.272     0.1543    0.08507     12.289     13.726     11.569     1163.4     33.024     2.0469    0.12085     2.5645
     1163.6     11.406    0.08328    -999.25      103.9     65.427    -999.25    0.17933    0.10008    0.12767     11.429     25.438     12.964    0.03522     9.7378      13.25    0.16243    0.09385      10.88     12.027     13.632     1163.6     34.851      1.962    0.12167     2.5495
     1163.7     11.722    0.09861    -999.25      103.9     65.427    -999.25    0.21996    0.04621    0.14433     11.905     25.938     13.503    0.03622     9.9953     11.211    0.16807    0.09996     11.265     12.448      11.49     1163.7      36.69     1.9873    0.12292     2.5391
     1163.9     12.759    0.08691    -999.25     103.37     64.852    -999.25      0.194   0.063886    0.13189     13.165     26.188     15.057     0.0392     9.9555     10.296    0.16915    0.10113     12.667     13.922      10.47     1163.9     45.388      1.974     0.1235     2.5371
       1164     18.655    0.10923    -999.25     102.88     65.045    -999.25    0.15367   0.080564    0.15576     19.839     26.812     22.153    0.04255     9.2526     11.525    0.16269    0.09414     18.855     20.563     11.563       1164     51.819     2.0975    0.12328      2.549
     1164.2     17.066    0.11016    -999.25     99.397     64.309    -999.25    0.16941   0.052553    0.15676     17.291         27     19.013    0.04085     9.3809     15.878    0.17003    0.10208     16.665     17.734     16.138     1164.2     52.337     2.0599    0.12326     2.5354
     1164.3     16.512    0.07945    -999.25     100.35     61.189    -999.25    0.17139   0.044216     0.1235     16.088      27.75     17.746    0.03006     9.6424     17.769      0.176    0.10854     15.966     16.451     17.727     1164.3     44.662     1.9972    0.12243     2.5244
     1164.5     15.983    0.07138    -999.25     102.62     63.278    -999.25    0.15086   0.074188    0.11418     15.419       28.5     16.932    0.02374     9.2153     16.721    0.17961    0.11245     15.478     15.672     16.617     1164.5     38.669     1.9107    0.12219     2.5177
     1164.6     16.632     0.0672    -999.25     103.47     63.662    -999.25    0.15849   0.081176    0.10935     16.155     28.375     17.641    0.02361     9.2323     15.625    0.17338     0.1057     16.156     16.194      15.88     1164.6     38.737     1.9556    0.12171     2.5293
     1164.8     18.335    0.07402    -999.25     103.29       63.9    -999.25    0.17544    0.10184    0.11695      18.04     28.375     19.645    0.02691     9.2407     15.427    0.16754    0.09939     18.046     18.042     15.927     1164.8     44.364     2.0525    0.12142       2.54
     1164.9     21.088    0.07655    -999.25     104.26     63.541    -999.25    0.17421   0.094684    0.12043     20.962       29.5      22.75    0.03519     9.0463      16.03     0.1514    0.08193     21.006     20.916     16.678     1164.9     59.347     2.1844    0.12254     2.5699
     1165.1     22.997    0.10266    -999.25     98.046     62.913    -999.25     0.1194   0.092635    0.14917     23.272     30.562     25.262    0.05907     8.8516     18.413    0.12699    0.05552     23.254     23.182     18.844     1165.1     90.521     2.2458    0.12375     2.6151
     1165.3     32.779    0.17481    -999.25      108.8      62.38    -999.25    0.02095    0.11049    0.22581     36.336         31     39.271    0.07475     8.7612     26.347    0.10797    0.03494     35.588      36.41     26.558     1165.3     115.33     2.4493    0.12377     2.6503
     1165.4     34.177    0.15317    -999.25      107.9     60.847    -999.25   -0.01269    0.13442    0.20312     37.342     31.375     39.951    0.06522     8.7478     28.355    0.11038    0.03754     36.993     37.325     28.746     1165.4     109.19     2.7755     0.1232     2.6458
     1165.6       34.6    0.08178    -999.25     103.34     61.256    -999.25    0.08785   0.073478    0.12665      37.12     32.562     39.424    0.03723      8.952     25.692    0.12579    0.05422      36.78     37.231     26.119     1165.6     80.505     2.7397    0.12193     2.6173
     1165.7     31.728    0.05753    -999.25     106.82     60.291    -999.25    0.13175   0.040316    0.09976     32.791     33.562     34.713    0.02624      9.541     22.791    0.13372     0.0628     32.923      33.15     23.606     1165.7     57.447     2.6003    0.12119     2.6026
     1165.9     40.352    0.07745    -999.25     104.77     59.704    -999.25    0.09471   0.058645    0.12129     45.822     35.062     48.427    0.03832     9.9261     28.673    0.12838    0.05702     46.088     46.417       28.9     1165.9     69.872     2.4061    0.12108     2.6125
