~Version ---------------------------------------------------
VERS.   2.0 : CWLS log ASCII Standard -VERSION 2.0
WRAP.    NO : One line per depth step
DLM . SPACE : Column Data Section Delimiter
~Well ------------------------------------------------------
STRT.m                     1.0668 : START DEPTH
STOP.m                  1939.1376 : STOP DEPTH
STEP.m                     0.1524 : STEP
NULL.                    -9999.25 : NULL VALUE
COMP. Elmworth Energy Corporation : COMPANY
WELL.               Kennetcook #2 : WELL
FLD .               Windsor Block : FIELD
LOC .     Lat = 45* 12' 34.237" N : LOCATION
PROV.                 Nova Scotia : PROVINCE
CNTY.                        None : COUNTY
STAT.                        None : STATE
CTRY.                          CA : COUNTRY
SRVC.                             : SERVICE COMPANY
DATE.  2016-03-23 16:07:07.010361 : DATE
UWI .     Long = 63* 45'24.460  W : UNIQUE WELL ID
API .                             : API NUMBER
LIC .                       P-129 : 
LONG.                        None : 
TOWN.                 63.75 Deg W : 
RANG.                      PD 176 : 
LATI.                        None : 
GDAT.                        None : 
SECT.                 45.20 Deg N : 
~Curves ----------------------------------------------------
DEPT    .m      : DEPTH
RLA1    .ohm.m  : HRLT Borehole Corrected Resistivity 1
NPHI_LIM.m3/m3  : Thermal Neutron Porosity (matrix Limestone)
RXO_HRLT.ohm.m  : 
DTS     .us/ft  : DTS
DT      .us/ft  : DT
HCAL    .in     : HRCC Cal. Caliper
DPHI_SAN.m3/m3  : Density Porosity (matrix Sandstone)
DRHO    .g/cm3  : HRDD Density Correction
NPHI_SAN.m3/m3  : Thermal Neutron Porosity (matrix Sandstone)
RLA3    .ohm.m  : HRLT Borehole Corrected Resistivity 3
SP      .mV     : SP
RLA5    .ohm.m  : HRLT Borehole Corrected Resistivity 5
NPHI_DOL.m3/m3  : Thermal Neutron Porosity (matrix Dolomite)
CALI    .in     : Caliper
RT_HRLT .ohm.m  : HRLT Computed True Resistivity
DPHI_DOL.m3/m3  : Density Porosity (matrix Dolomite)
DPHI_LIM.m3/m3  : Density Porosity (matrix Limestone)
RLA2    .ohm.m  : HRLT Borehole Corrected Resistivity 2
RLA4    .ohm.m  : HRLT Borehole Corrected Resistivity 4
RXOZ    .ohm.m  : MCFL Standard Resolution Invaded Zone Resistivity
GR      .gAPI   : Gamma-Ray
PEF     .       : Photoelectric Factor
RM_HRLT .ohm.m  : HRLT Mud Resistivity
RHOB    .g/cm3  : Bulk Density
~Params ----------------------------------------------------
EGL.   90.3 : 
EKB.   94.8 : 
TDD. 1935.0 : 
TDL. 1935.0 : 
~Other -----------------------------------------------------
~ASCII -----------------------------------------------------
# ...
     1417.8     99.144     0.0594    -999.25     92.023     58.235    -999.25    0.00403   0.010229    0.09998     87.553     48.938     91.626    0.01872     8.5995     53.403    0.10753    0.03447     81.236     90.187     56.769     1417.8     54.585     2.2056    0.12018     2.6511
     1417.9      88.24    0.05925    -999.25     92.134     58.298    -999.25    -0.0127   0.013343    0.09991     75.925         49     80.252    0.01795     8.5968     49.836    0.10416    0.03082     72.644     78.282     51.617     1417.9       52.1     2.3254    0.11997     2.6573
     1418.1     98.802    0.06197    -999.25     92.131      58.25    -999.25   -0.00901   0.013314     0.1029     82.716     49.125     88.601    0.01845     8.6131      47.02    0.10135    0.02778     81.114     85.043     48.721     1418.1     45.168     2.2439    0.11963     2.6625
     1418.2     108.53    0.06284    -999.25     92.096     58.352    -999.25   -0.00671   0.011329    0.10392     89.091     49.188     97.535    0.01779     8.6318     49.776    0.10115    0.02756     88.556     91.747     51.851     1418.2     41.745     2.1936    0.11921     2.6629
     1418.4     106.35     0.0691    -999.25     91.985     58.518    -999.25   -0.00371  0.0081313    0.11043     86.747      48.25     96.386    0.01945     8.6344     52.189    0.09995    0.02626     87.407     88.767     54.456     1418.4     39.552     2.0623    0.11908     2.6651
     1418.5     110.08     0.0622    -999.25      91.58       58.8    -999.25   -0.00996  0.0054916    0.10314     89.462     48.062      100.2    0.02008     8.6344     51.256    0.09963    0.02591       89.7     90.405     53.835     1418.5     41.964      2.152    0.11914     2.6657
     1418.7      127.4    0.06001    -999.25     92.022     59.163    -999.25   -0.01456  0.0056346    0.10096     101.24     48.625     114.66    0.02105     8.5955      55.82    0.09564     0.0216     99.059     102.29     58.392     1418.7     44.549     2.2652    0.11947     2.6731
     1418.8      157.2    0.06519    -999.25     93.893     60.392    -999.25   -0.01372   0.005095    0.10694     120.89         49     138.78    0.02145     8.5511     64.787    0.09435     0.0202     115.23     121.67     66.743     1418.8     47.253     2.3165    0.11991     2.6755
       1419     198.52     0.0713    -999.25     96.734     60.371    -999.25   -0.00934  0.0025153    0.11394     146.59     48.625     172.14    0.02203     8.5278     91.736    0.09259     0.0183     139.36     150.39     93.491       1419     49.153     2.2931    0.12056     2.6787
     1419.1     229.63    0.06888    -999.25     96.744     59.925    -999.25   -0.00012  -0.001225    0.11193     176.19     48.375      210.8    0.02876      8.492     101.14    0.09162    0.01725     170.02     179.81     107.64     1419.1     56.351     2.2797    0.12076     2.6805
     1419.3     223.36    0.10411    -999.25     96.265     60.125    -999.25    0.00453 -0.0019219    0.15041     170.05     49.125     205.61    0.05021     8.4893     151.81    0.08969    0.01516     165.77     179.54     156.14     1419.3     70.708     2.3941    0.12093     2.6841
     1419.5      259.2    0.16392    -999.25     95.425     59.078    -999.25    0.00634 -0.0018736    0.21411     242.48     49.438     290.33    0.06616       8.47     108.77    0.08739    0.01267     240.07     244.79     114.45     1419.5     90.003     2.4204    0.12135     2.6883
     1419.6     164.03    0.14276    -999.25     93.925     58.964    -999.25    0.00182  -0.003635    0.19183     123.78         50     143.47    0.05619     8.4597     103.22    0.09056     0.0161     126.14     124.83     104.59     1419.6     92.488     2.5189    0.12193     2.6825
     1419.8     146.81    0.07112    -999.25     92.637     59.284    -999.25   -0.00265 -0.0042474    0.11449     111.38     49.688     127.62    0.03161      8.457     70.381    0.08796    0.01329     114.55     112.96       71.3     1419.8     79.227     2.4169    0.12219     2.6873
     1419.9      138.7    0.05622    -999.25     90.696     57.425    -999.25   -0.01538 -0.0010585    0.09729     103.94     49.625     117.73    0.02026       8.46      67.24    0.08086    0.00561      107.6     105.17     67.515     1419.9     60.371     2.4074    0.12284     2.7004
     1420.1     142.93    0.05804    -999.25     90.541     57.532    -999.25   -0.01682 -9.662e-05    0.09876     109.32     50.062     121.78     0.0196     8.4543     59.486    0.07783    0.00233      112.5     110.34     59.779     1420.1     50.536     2.3657    0.12274      2.706
     1420.2     204.06    0.06809    -999.25     91.537     58.147    -999.25    -0.0146 -0.0012719    0.10967     165.87     50.438     181.32     0.0184     8.4597     74.677    0.08316     0.0081     167.53     167.95     77.903     1420.2     51.267     2.2973    0.12247     2.6962
     1420.4     243.34    0.06166    -999.25     91.885     56.842    -999.25   -0.01254  0.0028045    0.10276     202.75       50.5     222.57    0.01892     8.4725         82    0.09269    0.01841     200.43     203.79     88.978     1420.4     52.363     2.2686     0.1223     2.6785
     1420.5     192.28    0.06009    -999.25     92.193     57.202    -999.25   -0.01235  0.0063874    0.10123     155.51     50.188     166.51    0.02162     8.4812     119.64    0.09502    0.02093     151.06     157.54     120.91     1420.5     54.491     2.2043    0.12195     2.6742
     1420.7      208.9    0.08211    -999.25     92.721     57.422    -999.25   -0.00654   0.007187    0.12527     183.56     50.188     196.96    0.02515      8.492     78.509    0.09315    0.01891     174.73     186.46     95.298     1420.7     55.734     2.1888    0.12132     2.6777
     1420.8     187.09    0.08074    -999.25       92.9     57.953    -999.25   -0.00566  0.0064989    0.12399     171.03     50.562     182.88    0.02525     8.4976     28.978    0.09963    0.02592     161.53     175.54      103.4     1420.8     58.219     2.2346     0.1208     2.6657
       1421     110.96    0.06872    -999.25     94.022     58.326    -999.25   -0.00212  0.0024191    0.11092      103.8     50.875     110.42    0.02245      8.492     86.455    0.10786    0.03482     98.256     107.72     67.971       1421     56.015     2.2621    0.12031     2.6505
     1421.1      86.92    0.06662    -999.25     93.635     58.237    -999.25   -0.00758  0.0017056    0.10833     78.412     50.438     82.686    0.02028     8.4976     53.348    0.11694    0.04464     76.254     82.278     60.294     1421.1     51.995      2.335    0.12003     2.6337
     1421.3     95.567    0.06758    -999.25     93.752     58.517    -999.25    -0.0052 -7.367e-05    0.10931     85.113         50      88.71    0.01898      8.492       43.7    0.11664    0.04432      84.31     89.154     48.018     1421.3     47.244     2.3488    0.11987     2.6342
     1421.4     99.628    0.05754    -999.25     93.845     58.673    -999.25   -0.00227 -0.0015473    0.09827     87.144     50.062      88.86    0.01975     8.4947     47.109    0.10913    0.03619     86.184     90.301     48.512     1421.4     46.118     2.4486    0.11973     2.6481
     1421.6     111.53    0.08061    -999.25     92.785       58.4    -999.25    0.00398 -0.0020269    0.12305     99.316      50.25     99.831    0.01784     8.4812     51.159    0.10296    0.02952     96.395     101.27     53.101     1421.6      45.16     2.5305    0.11933     2.6595
     1421.7     120.04    0.05695    -999.25     92.423     58.111    -999.25    0.00288  0.0012686    0.09714     117.69      50.25      115.6    0.01804     8.4861      36.14    0.09871    0.02493     110.35      115.4     59.856     1421.7     45.964     2.4827    0.11902     2.6674
     1421.9     79.858     0.0526    -999.25     93.756     58.019    -999.25    0.00536 -0.0027113    0.09247     74.726       50.5     71.952    0.01655     8.4801     57.049    0.09549    0.02143     70.484     72.613     57.633     1421.9     43.698     2.4246    0.11904     2.6734
