~Version ---------------------------------------------------
VERS.   2.0 : CWLS log ASCII Standard -VERSION 2.0
WRAP.    NO : One line per depth step
DLM . SPACE : Column Data Section Delimiter
~Well ------------------------------------------------------
STRT.m                     1.0668 : START DEPTH
STOP.m                  1939.1376 : STOP DEPTH
STEP.m                     0.1524 : STEP
NULL.                    -9999.25 : NULL VALUE
COMP. Elmworth Energy Corporation : COMPANY
WELL.               Kennetcook #2 : WELL
FLD .               Windsor Block : FIELD
LOC .     Lat = 45* 12' 34.237" N : LOCATION
PROV.                 Nova Scotia : PROVINCE
CNTY.                        None : COUNTY
STAT.                        None : STATE
CTRY.                          CA : COUNTRY
SRVC.                             : SERVICE COMPANY
DATE.  2016-03-23 16:07:07.010361 : DATE
UWI .     Long = 63* 45'24.460  W : UNIQUE WELL ID
API .                             : API NUMBER
LIC .                       P-129 : 
LONG.                        None : 
TOWN.                 63.75 Deg W : 
RANG.                      PD 176 : 
LATI.                        None : 
GDAT.                        None : 
SECT.                 45.20 Deg N : 
~Curves ----------------------------------------------------
DEPT    .m      : DEPTH
RLA1    .ohm.m  : HRLT Borehole Corrected Resistivity 1
NPHI_LIM.m3/m3  : Thermal Neutron Porosity (matrix Limestone)
RXO_HRLT.ohm.m  : 
DTS     .us/ft  : DTS
DT      .us/ft  : DT
HCAL    .in     : HRCC Cal. Caliper
DPHI_SAN.m3/m3  : Density Porosity (matrix Sandstone)
DRHO    .g/cm3  : HRDD Density Correction
NPHI_SAN.m3/m3  : Thermal Neutron Porosity (matrix Sandstone)
RLA3    .ohm.m  : HRLT Borehole Corrected Resistivity 3
SP      .mV     : SP
RLA5    .ohm.m  : HRLT Borehole Corrected Resistivity 5
NPHI_DOL.m3/m3  : Thermal Neutron Porosity (matrix Dolomite)
CALI    .in     : Caliper
RT_HRLT .ohm.m  : HRLT Computed True Resistivity
DPHI_DOL.m3/m3  : Density Porosity (matrix Dolomite)
DPHI_LIM.m3/m3  : Density Porosity (matrix Limestone)
RLA2    .ohm.m  : HRLT Borehole Corrected Resistivity 2
RLA4    .ohm.m  : HRLT Borehole Corrected Resistivity 4
RXOZ    .ohm.m  : MCFL Standard Resolution Invaded Zone Resistivity
GR      .gAPI   : Gamma-Ray
PEF     .       : Photoelectric Factor
RM_HRLT .ohm.m  : HRLT Mud Resistivity
RHOB    .g/cm3  : Bulk Density
~Params ----------------------------------------------------
EGL.   90.3 : 
EKB.   94.8 : 
TDD. 1935.0 : 
TDL. 1935.0 : 
~Other -----------------------------------------------------
~ASCII -----------------------------------------------------
# ...
     1678.1     81.287    0.05757    -999.25     87.861     58.149    -999.25    0.01217  0.0015475    0.09763     80.143     58.438     92.358    0.01393     7.9371     6.5095    0.13765    0.06705     78.227      83.31     6.7928     1678.1     42.181     2.1596    0.13845     2.5953
     1678.2     78.472    0.06258    -999.25     99.998      58.68    -999.25    0.00993  0.0029137    0.10355     84.121     58.312       96.8    0.01575      7.932      4.531    0.16066    0.09194     83.472     86.113     4.6661     1678.2     41.769     2.1739    0.13605     2.5528
     1678.4     66.584    0.05899    -999.25     99.834     60.112    -999.25    0.00733 0.00035757        0.1      63.41     58.125     73.265    0.01724     7.9336     2.7643    0.20571    0.14068     64.401     64.263      2.914     1678.4     39.358     2.2067     0.1373     2.4694
     1678.5     63.352    0.07218    -999.25     100.22     60.141    -999.25    0.00739 -0.0012227    0.11468     58.422     57.812      68.67    0.01652      7.932     1.7595    0.26421    0.20397     60.825     59.926     1.8166     1678.5     37.496     2.1795    0.14133     2.3612
     1678.7      61.76    0.07852    -999.25     101.96     60.488    -999.25    0.00895 0.00057131    0.12134     53.986     57.812     64.139    0.01716      7.922    0.63955    0.31614    0.26015     58.692     55.545     1.3413     1678.7     36.279     2.1948    0.14331     2.2651
     1678.8     58.587    0.07552    -999.25     105.33     60.849    -999.25    0.01346 -7.248e-05    0.11801     43.855      58.25      52.69    0.01607     7.9175     1.2164    0.33366     0.2791     49.736      45.31      1.209     1678.8     34.678      2.143    0.14264     2.2327
       1679      58.25    0.06179    -999.25     99.223     60.536    -999.25    0.01601 -0.0013343    0.10289     42.002     58.688     50.146    0.01507     7.8961     1.4063    0.31656     0.2606     48.059     43.557     1.3681       1679     32.808      2.185    0.13941     2.2644
     1679.1     60.905    0.06879    -999.25     102.53     59.722    -999.25    0.01785  0.0017022     0.1103     44.437     58.188     53.192    0.01549     7.8968     1.8403    0.27345    0.21397     51.352     46.308     1.8417     1679.1     31.842     2.1421      0.136     2.3441
     1679.3     67.567    0.06251    -999.25     89.869     58.743    -999.25    0.01583 -0.0016646    0.10363     52.737      57.25     63.129     0.0192     7.8944     2.4106    0.22059    0.15678     60.328     54.857     2.8575     1679.3     38.941     2.1251    0.13311     2.4419
     1679.4     83.404    0.07308    -999.25     94.498     58.102    -999.25    0.01157 -0.0015083    0.11532     76.473     57.062     92.006    0.02119     7.8952     4.6093     0.1675    0.09935     85.574     80.001     4.9862     1679.4     49.538     2.1297    0.13053     2.5401
     1679.6     96.014    0.07478    -999.25     91.369     57.352    -999.25    0.00387 0.00071985    0.11756      93.48     57.188     112.31    0.02448     7.8976     5.3828    0.16187    0.09325     102.54     98.048     5.4161     1679.6     55.729     2.2347    0.12935     2.5505
     1679.8     94.441    0.05935    -999.25     94.685     58.493    -999.25      0.007 0.00066888    0.10126     91.121     57.375     109.06    0.02236     7.8925     3.1877    0.20635    0.14137     97.322     95.409     3.1524     1679.8     54.191     2.2409    0.13105     2.4683
     1679.9     73.735    0.09196    -999.25     97.937      60.21    -999.25    0.02009 -0.0056065    0.13604      54.98     56.625      64.81    0.02087      7.896     1.9363    0.27487     0.2155     56.856     58.034     1.9237     1679.9     44.612     2.1841    0.13485     2.3415
     1680.1     67.489    0.06864    -999.25     95.722     60.096    -999.25    0.02057  -0.003559    0.11085     42.411     56.812     49.253    0.01649     7.8961     1.5877    0.29784    0.24036     43.894     45.192     1.6048     1680.1     38.843     2.1432    0.13968      2.299
     1680.2     66.474    0.06212    -999.25     94.725     60.327    -999.25    0.01579 -0.0051141    0.10372     43.274     57.188     50.123    0.01864     7.8952     1.6245    0.28261    0.22387     46.338     46.596     1.6486     1680.2     33.705     2.1295    0.14142     2.3272
     1680.4     70.084    0.07708    -999.25     93.133     60.068    -999.25    0.00227 -0.0033492    0.12014     49.855         58     57.201    0.02357     7.8936     1.8846    0.25998     0.1994     56.203     53.684     1.9255     1680.4     35.266     2.3643    0.13792      2.369
     1680.5     61.039    0.09307    -999.25     96.226     61.107    -999.25    0.01289 -0.0065856    0.13781     43.825         58     50.264     0.0285     7.8968      2.187    0.23772    0.17532     48.739     47.133     2.2779     1680.5     38.433     2.4417    0.13656     2.4102
     1680.7     61.921    0.09492    -999.25     95.158     60.707    -999.25    0.01522 -0.0059969    0.13986     47.924      57.75     53.924     0.0284     7.9001     2.3441    0.22712    0.16384     53.744     51.274     2.3718     1680.7     40.223      2.389    0.13324     2.4298
     1680.8     68.215    0.08085    -999.25     94.589     60.202    -999.25    0.01956 -0.0064302    0.12451     57.409     58.188     64.072    0.02262     7.8898     1.6558    0.22675    0.16345     61.441     60.636     1.9008     1680.8     37.033     2.2086    0.13162     2.4305
       1681     58.427    0.06349    -999.25      94.12      59.98    -999.25     0.0123  0.0005489    0.10499     42.335     58.625     44.783    0.01476     7.8969     1.5982    0.23763    0.17522     43.076     42.686     1.6439       1681     32.951     2.0015    0.13208     2.4104
     1681.1     56.286    0.06158    -999.25     97.727     60.361    -999.25    0.01497  0.0020681    0.10243     42.789     58.938     43.777    0.01507     7.8952     1.5317    0.24104     0.1789     43.187     42.004     1.5791     1681.1     28.472     2.0217    0.13539     2.4041
     1681.3     53.873     0.0583    -999.25     97.727     60.361    -999.25     0.0111  0.0074176    0.09881     43.854     58.625     44.987    0.01301     7.8944     1.6782    0.23074    0.16776     46.884     43.528     1.7434     1681.3     28.064     2.0023     0.1369     2.4231
     1681.4      53.98    0.05559    -999.25     99.217     60.845    -999.25    0.01139  0.0090633    0.09545     49.755     58.562     52.029    0.01201     7.8951     0.5467    0.23134    0.16841     54.337     50.301     1.7622     1681.4     28.135     2.0628     0.1421      2.422
     1681.6     52.887    0.05677    -999.25     107.87     61.639    -999.25    0.01273  0.0086737    0.09702     46.755         59     49.203     0.0115     7.8952     1.3877    0.26247    0.20209     52.622     47.341     1.4836     1681.6     30.714     2.1603    0.14741     2.3644
     1681.7     52.171     0.0595    -999.25     106.47     62.711    -999.25    0.02456  0.0024574    0.09995     42.709     59.688     44.481    0.01063     7.8969     1.4007    0.28564    0.22716     49.587     42.827     1.3756     1681.7     30.646     2.1102    0.14448     2.3216
     1681.9     57.712    0.05987    -999.25     105.39     62.869    -999.25    0.02166  0.0025108    0.10027     45.313         60     48.158    0.01004     7.8925     1.3611    0.30464    0.24771     53.954     45.654     1.3736     1681.9     30.812     2.1132    0.14109     2.2864
       1682      65.45    0.06222    -999.25     102.68     62.436    -999.25     0.0263 -0.0026557    0.10247     50.564     60.062     55.331    0.01394     7.8911     1.6019    0.30662    0.24985     61.818     51.548     1.5765       1682     32.101     2.0213    0.13946     2.2828
     1682.2     64.587    0.06403    -999.25     98.267     61.559    -999.25    0.01955 -0.0036404    0.10457     45.773     60.625      51.46    0.02053     7.9021      1.848    0.26016    0.19958     53.966     47.834     1.9306     1682.2     34.283     1.9751    0.13473     2.3687
