~Version ---------------------------------------------------
VERS.   2.0 : CWLS log ASCII Standard -VERSION 2.0
WRAP.    NO : One line per depth step
DLM . SPACE : Column Data Section Delimiter
~Well ------------------------------------------------------
STRT.m                     1.0668 : START DEPTH
STOP.m                  1939.1376 : STOP DEPTH
STEP.m                     0.1524 : STEP
NULL.                    -9999.25 : NULL VALUE
COMP. Elmworth Energy Corporation : COMPANY
WELL.               Kennetcook #2 : WELL
FLD .               Windsor Block : FIELD
LOC .     Lat = 45* 12' 34.237" N : LOCATION
PROV.                 Nova Scotia : PROVINCE
CNTY.                        None : COUNTY
STAT.                        None : STATE
CTRY.                          CA : COUNTRY
SRVC.                             : SERVICE COMPANY
DATE.  2016-03-23 16:07:07.010361 : DATE
UWI .     Long = 63* 45'24.460  W : UNIQUE WELL ID
API .                             : API NUMBER
LIC .                       P-129 : 
LONG.                        None : 
TOWN.                 63.75 Deg W : 
RANG.                      PD 176 : 
LATI.                        None : 
GDAT.                        None : 
SECT.                 45.20 Deg N : 
~Curves ----------------------------------------------------
DEPT    .m      : DEPTH
RLA1    .ohm.m  : HRLT Borehole Corrected Resistivity 1
NPHI_LIM.m3/m3  : Thermal Neutron Porosity (matrix Limestone)
RXO_HRLT.ohm.m  : 
DTS     .us/ft  : DTS
DT      .us/ft  : DT
HCAL    .in     : HRCC Cal. Caliper
DPHI_SAN.m3/m3  : Density Porosity (matrix Sandstone)
DRHO    .g/cm3  : HRDD Density Correction
NPHI_SAN.m3/m3  : Thermal Neutron Porosity (matrix Sandstone)
RLA3    .ohm.m  : HRLT Borehole Corrected Resistivity 3
SP      .mV     : SP
RLA5    .ohm.m  : HRLT Borehole Corrected Resistivity 5
NPHI_DOL.m3/m3  : Thermal Neutron Porosity (matrix Dolomite)
CALI    .in     : Caliper
RT_HRLT .ohm.m  : HRLT Computed True Resistivity
DPHI_DOL.m3/m3  : Density Porosity (matrix Dolomite)
DPHI_LIM.m3/m3  : Density Porosity (matrix Limestone)
RLA2    .ohm.m  : HRLT Borehole Corrected Resistivity 2
RLA4    .ohm.m  : HRLT Borehole Corrected Resistivity 4
RXOZ    .ohm.m  : MCFL Standard Resolution Invaded Zone Resistivity
GR      .gAPI   : Gamma-Ray
PEF     .       : Photoelectric Factor
RM_HRLT .ohm.m  : HRLT Mud Resistivity
RHOB    .g/cm3  : Bulk Density
~Params ----------------------------------------------------
EGL.   90.3 : 
EKB.   94.8 : 
TDD. 1935.0 : 
TDL. 1935.0 : 
~Other -----------------------------------------------------
~ASCII -----------------------------------------------------
# ...
     1033.7     99.364    0.20848    -999.25     110.35     65.639    -999.25   -0.04993  0.0094513    0.26016     115.25     57.062     119.62     0.1386     7.9378     97.539    0.05515    -0.0222     109.23     115.76     101.81     1033.7     131.26     3.4097    0.13283      2.748
     1033.9     91.052    0.21379    -999.25     112.26     66.089    -999.25   -0.05602  0.0087832    0.26548     106.46     56.188     108.95    0.15233     7.9026     77.352    0.05469    -0.0227     102.22     105.76     78.744     1033.9     137.77     3.6893     0.1292     2.7488
       1034     65.197    0.21638    -999.25     117.77     67.773    -999.25   -0.07216    0.01003    0.26778     74.379     55.625     76.006     0.1761     7.8976     57.426    0.05208   -0.02552      73.33     74.508     58.637       1034     140.47     4.0381    0.12428     2.7536
     1034.2     51.659    0.25889    -999.25     125.59      69.24    -999.25   -0.06258  0.0033499    0.31035     57.008      53.75     57.443    0.19318     7.9378     49.089    0.05448   -0.02293     57.385     57.098     50.035     1034.2     138.72     4.0492    0.11911     2.7492
     1034.3     51.263    0.25757    -999.25     125.59      69.24    -999.25   -0.06465  0.0027707     0.3084     57.546     53.562     57.335    0.18715     7.9488     47.966    0.05751   -0.01965     58.128     57.434     48.669     1034.3     135.87     3.9182    0.11379     2.7436
     1034.5     48.564    0.22106    -999.25     124.73     68.502    -999.25   -0.05974  2.044e-05    0.27159     55.565       53.5     55.124    0.19779     7.9569     51.183    0.05678   -0.02044     55.697     55.171     51.781     1034.5     134.85     3.6809    0.11006      2.745
     1034.6     45.455    0.27848    -999.25     124.09     67.741    -999.25   -0.06314 0.00096947    0.32904      52.56     53.312     52.082    0.21715     7.9252     49.164     0.0535   -0.02399     52.332     51.848      50.52     1034.6     135.43     3.8349    0.10793      2.751
     1034.8     44.125    0.30215    -999.25     120.39     66.454    -999.25   -0.05603 -0.0014229    0.35275     51.507     52.562     50.435    0.25504     7.9287     49.018    0.05478   -0.02261     51.007     50.669     49.676     1034.8     135.58     3.6803    0.10793     2.7487
     1034.9     46.607    0.27535    -999.25     118.45     66.362    -999.25    -0.0565  0.0039098    0.32567      57.92     51.812     56.978    0.24213     7.9031     51.559    0.05622   -0.02104     56.666     57.378      52.96     1034.9     132.44     3.8463    0.10892      2.746
     1035.1      55.32     0.2383    -999.25     123.56      65.38    -999.25   -0.05816  0.0032045    0.28882     75.124     52.062     74.703    0.20938       7.87     57.959    0.05669   -0.02054     73.055     75.709      62.88     1035.1     128.85     3.6429    0.10977     2.7451
     1035.3     58.222    0.22731    -999.25     127.54     66.133    -999.25   -0.05873   0.004991     0.2776     90.232      52.75     90.275    0.18798      7.856      59.43    0.05745   -0.01971     84.716     89.701     65.178     1035.3     126.73     3.7772    0.10961     2.7437
     1035.4     46.021    0.22947    -999.25     126.26     68.024    -999.25   -0.06132    0.01012     0.2794      67.68     52.062     68.314    0.19139     7.8786     50.172    0.05003   -0.02775     63.057     67.757      56.57     1035.4     125.86     3.6221    0.10677     2.7574
     1035.6     40.907    0.31716    -999.25     128.73     69.109    -999.25   -0.05543  0.0065071    0.36665     54.089     51.812     54.853    0.23447     7.9328     38.703    0.03611    -0.0428     51.136     54.399     41.397     1035.6     134.41     3.6412    0.10383     2.7832
     1035.7     39.109    0.33529    -999.25     127.26     69.045    -999.25   -0.04523  0.0033969    0.38375     45.646     51.312     46.425    0.26629     7.9654     26.924    0.02109   -0.05905     44.741     46.035      27.14     1035.7     133.71      3.488    0.10222      2.811
     1035.9     39.948    0.29158    -999.25     126.57     68.659    -999.25   -0.04517  0.0044792    0.34117     47.494       51.5     48.343    0.27977     7.9805     26.949    0.02043   -0.05977     46.959     48.371     27.261     1035.9     137.84     3.4618    0.10223     2.8122
       1036     45.028    0.28058    -999.25      123.4     67.805    -999.25   -0.04667  0.0035008    0.32976     59.813     51.688     61.541    0.23549     8.0106     32.286    0.02576     -0.054     59.715     61.273     32.928       1036     128.46     3.7173    0.10396     2.8023
     1036.2     44.079     0.2411    -999.25      119.2      67.01    -999.25   -0.05543  0.0013665    0.29143     50.354     51.438     52.601    0.22963     7.9579     44.468    0.02594   -0.05381     49.947     51.658     46.454     1036.2     130.03     3.8843    0.10638      2.802
     1036.3     42.419    0.27201    -999.25     115.07     66.148    -999.25   -0.06552  0.0076128    0.32281     47.743     50.938     49.421    0.20033     7.9328     43.838    0.02495   -0.05488     47.376     48.744     45.295     1036.3     129.78     4.0298    0.10994     2.8038
     1036.5     48.053    0.26328    -999.25     113.06     65.778    -999.25   -0.05221  0.0015125    0.31564     54.105      50.75     55.516    0.18547      7.922     43.877    0.03189   -0.04737     51.977     54.885     44.932     1036.5     128.34     3.6051    0.11374      2.791
     1036.6     50.073    0.18012    -999.25     111.41     64.894    -999.25   -0.04055  0.0011573    0.23119      53.99         51     55.254    0.14816     7.9012     49.743    0.04641   -0.03166     51.559     54.496     50.596     1036.6     119.28     3.2226    0.11782     2.7641
     1036.8     61.871    0.15486    -999.25     111.11     65.018    -999.25   -0.02612 0.00079352    0.20517     64.683     50.688     68.042    0.12836     7.9031     55.405    0.06168   -0.01515      63.05     67.409     56.575     1036.8     109.34     3.0379     0.1222     2.7359
     1036.9     56.408    0.18833    -999.25     110.23     65.082    -999.25   -0.02605  0.0022094    0.23998     58.461     50.375     60.641     0.1161     7.9052     50.835    0.07688    0.00131     56.353     59.901     52.202     1036.9     106.05     3.0261    0.12574     2.7078
     1037.1     45.003    0.15819    -999.25     120.46     66.397    -999.25   -0.02318   0.001748    0.20863     47.611     49.812     49.099    0.11116     7.9001       48.8     0.0844    0.00944     45.779     48.923     49.357     1037.1     102.54     3.1969    0.12651     2.6939
     1037.2     52.466    0.16677    -999.25      120.8     66.714    -999.25   -0.02899  0.0050602     0.2174      60.69     49.625      62.41    0.11863     7.8961     44.001    0.08543    0.01055      57.68     62.093     44.909     1037.2     101.18     3.5522    0.12363      2.692
     1037.4     44.823    0.23197    -999.25     121.19     67.251    -999.25   -0.02837   0.012819      0.284     54.999     49.625     56.584    0.15647     7.9001     44.795    0.08448    0.00953     52.525     55.643     47.727     1037.4     106.81      3.881     0.1192     2.6937
     1037.5     37.121    0.26549    -999.25     120.49     67.509    -999.25   -0.04459   0.030186    0.31717     43.512     49.688     44.616    0.18927     7.9037     39.116      0.071   -0.00506     41.822     43.748     41.057     1037.5     119.16     4.1401    0.11584     2.7186
     1037.7      33.34    0.27533    -999.25     117.57     66.608    -999.25   -0.03129    0.01847     0.3274     36.427     49.438     37.062    0.20044     7.9252     23.207    0.06176   -0.01506     35.652     36.113     23.973     1037.7     129.51     3.6187    0.11361     2.7358
     1037.8     32.043    0.24057    -999.25     117.57     66.608    -999.25   -0.03208   0.024614    0.29287     34.721     48.625     35.603    0.17747      7.998     21.701    0.06256   -0.01419     34.445     34.717     22.454     1037.8     128.71     3.2789    0.11443     2.7343
