~Version Information Section
 VERS.      2.0         :CWLS LOG ASCII STANDARD - VERSION 2.0
 WRAP.      NO          :SINGLE LINE PER DEPTH STEP
 CREA.      8/24/2011 12:45:27
~Well Information Section
#MNEM.UNIT                      VALUE/NAME                 DESCRIPTION
#----.----     ----------------------------------   --------------------
 STRT .FT           1040.0000                         :START DEPTH
 STOP .FT          11320.0000                         :STOP DEPTH
 STEP .FT              0.5000                         :STEP VALUE
 NULL .             -999.0000                         :NULL VALUE
 SRVC .          SCH                                  :Service Company/Logging company
 DATE .          08/24/2011                           :LAS file Creation Date
 WELL .          PENOBSCOT B-41                       :Well Name
 COMP .          SHELL CANADARESOURCES LIMITED        :Company
 FLD  .          WILDCAT                              :Field
 STATE.          CALAGARY, ALBERTA                    :State
 COUNT.          CANADA                               :Country
 LOC  .          44'10'02; N LAT|60'06'32; W LO       :Location
 LATI .          0                                    :Latitude/Northing
 LONG .          0                                    :Longitude/Easting
 PDAT .          UNK                                  :Permanent Datum
 EPDAT.          0.0000                               :Elevation of Permanent Datum
 KB   .          99.0000                              :KB Elevation
 GL   .          -387.0000                            :GL Elevation
 RWS  .          0                                    :Def_Rw
 WST  .          0                                    :Def_Rwt
 ERT  .          0.0000                               :RT Elevation
 CNTY .          NOVA SCOTIA SHELF                    :County
~Curve Information Section
#MNEM  .UNIT         CURVE DESCRIPTION
#----  .----         -------------------------
 DEPTH .FT           :1 Depth
 CALD  .IN           :2 Caliper    Density Caliper
 CALS  .IN           :3 Caliper    DT Caliper
 DEPTH .FT           :4 Depth
 DRHO  .G/C3         :5 Drho       Delta Rho
 DT    .US/FT        :6 Sonic      Delta-T
 GRD   .GAPI         :7 GammaRay   Gamma Ray Density
 GRS   .GAPI         :8 GammaRay   Gamma Ray Sonic
 ILD   .OHMM         :9 DeepRes    Deep Induction Standard Processed Resistivity
 ILM   .OHMM         :10 MedRes    Medium Induction Standard Processed Resistivity
 LL8   .OHMM         :11 LL8       Shallow - Latero-Log 8
 NPHISS.V/V          :12 Neutron    Neutron Porosity – Ss Mtx
 RHOB  .G/C3         :13 Density    Bulk Density
 SP    .MV           :14 SP         Spontaneous Potential
~Parameter Information Section
#MNEM.UNIT                      VALUE                       DESCRIPTION
#----.----     ----------------------------------   --------------------
~A  DEPTH     CALD      CALS      DEPTH      DRHO       DT        GRD       GRS       ILD       ILM       LL8     NPHISS     RHOB       SP    
# ...
  7872.0000    9.6450   11.7320  7872.0000    0.2160   84.7880   85.8220   81.6400    3.1100    3.4100    4.1200    0.3670    2.5200   20.1500
  7872.5000    9.6420   11.7580  7872.5000    0.1940   84.8410   87.0480   81.8100    3.1400    3.4900    3.9600    0.3740    2.5300   19.7500
  7873.0000    9.6400   11.9080  7873.0000    0.2020   84.6780   86.1540   81.1390    3.1700    3.4700    4.1200    0.3870    2.5350   19.3700
  7873.5000    9.6380   12.0150  7873.5000    0.2070   84.8580   83.5660   80.4670    3.1900    3.4500    4.3100    0.3900    2.5260   19.0000
  7874.0000    9.6350   11.8760  7874.0000    0.1880   85.3190   84.1460   79.8220    3.2200    3.4900    4.5000    0.3930    2.4960   18.6300
  7874.5000    9.6330   11.8950  7874.5000    0.1790   85.4570   85.5560   80.2150    3.2500    3.5200    4.3400    0.3750    2.4750   18.2600
  7875.0000    9.6310   11.8380  7875.0000    0.1690   85.1090   84.1480   79.6240    3.2800    3.5500    4.2000    0.3600    2.4880   17.8800
  7875.5000    9.6280   11.7630  7875.5000    0.1620   84.8860   82.0660   78.3770    3.3200    3.5900    4.0700    0.3610    2.4710   17.2700
  7876.0000    9.6260   11.6880  7876.0000    0.1650   84.8440   82.1410   77.5480    3.3500    3.6200    4.1700    0.3580    2.5160   16.5600
  7876.5000    9.6230   11.6920  7876.5000    0.1410   84.7950   83.4900   78.4810    3.3700    3.6500    4.2500    0.3480    2.5400   15.8200
  7877.0000    9.6210   11.7100  7877.0000    0.1250   84.0770   82.9030   79.3880    3.3900    3.6900    4.3400    0.3440    2.5240   15.9400
  7877.5000    9.6230   11.7290  7877.5000    0.1390   84.5310   81.9870   78.8330    3.4200    3.7200    4.8000    0.3470    2.5330   16.2500
  7878.0000    9.6260   11.7480  7878.0000    0.1520   85.5940   81.6660   78.0400    3.4400    3.7000    4.5500    0.3340    2.5450   16.5700
  7878.5000    9.6290   11.8110  7878.5000    0.1580   84.8290   83.5130   79.7880    3.4600    3.6800    4.3800    0.3420    2.5170   16.8900
  7879.0000    9.6310   11.9230  7879.0000    0.1330   84.5920   85.2970   81.5280    3.4900    3.6700    4.4600    0.3520    2.5300   17.1900
  7879.5000    9.6340   12.0340  7879.5000    0.1660   85.6200   84.5980   80.5630    3.4700    3.6500    4.5300    0.3560    2.5570   17.4900
  7880.0000    9.6370   12.1450  7880.0000    0.1890   86.6470   83.5750   79.6120    3.4400    3.6400    4.5900    0.3590    2.5800   17.7700
  7880.5000    9.6400   12.2070  7880.5000    0.2010   87.6750   82.5460   79.4480    3.4200    3.6200    4.3700    0.3680    2.5450   18.0600
  7881.0000    9.6420   12.2300  7881.0000    0.1930   87.5630   83.5360   79.8940    3.3900    3.6100    4.2200    0.3820    2.5100   18.3400
  7881.5000    9.6450   12.2530  7881.5000    0.1760   86.9920   84.6840   80.0840    3.3700    3.5900    4.4000    0.3830    2.4850   18.6400
  7882.0000    9.6480   12.2750  7882.0000    0.1980   86.3860   85.0030   80.3380    3.3500    3.5800    4.5400    0.3840    2.4820   18.2900
  7882.5000    9.6510   12.2700  7882.5000    0.2350   87.0130   83.4450   81.7930    3.3200    3.5600    4.3800    0.3950    2.5070   17.8200
  7883.0000    9.6530   12.2620  7883.0000    0.2270   86.4730   84.0250   83.2470    3.3000    3.5500    4.2400    0.4060    2.4760   17.4600
  7883.5000    9.6560   12.2570  7883.5000    0.2450   85.7540   86.1730   84.4030    3.2700    3.5400    4.0700    0.4150    2.4830   17.4000
  7884.0000    9.6590   12.2770  7884.0000    0.1850   86.1150   87.0580   80.5240    3.3000    3.5300    4.1400    0.4230    2.4320   17.3300
  7884.5000    9.6620   12.2890  7884.5000    0.2180   86.4760   86.7540   76.5340    3.3500    3.5200    4.2300    0.4340    2.5150   17.2700
  7885.0000    9.6640   12.1620  7885.0000    0.1990   86.8370   88.6740   72.5610    3.4000    3.5600    4.3200    0.4200    2.5000   17.2100
  7885.5000    9.6660   12.1250  7885.5000    0.1830   86.1170   87.7130   69.1280    3.4400    3.6100    4.4200    0.4020    2.4840   16.9100
  7886.0000    9.6680   12.1860  7886.0000    0.1670   85.0440   86.5830   70.9940    3.4900    3.6600    4.3200    0.3850    2.5030   16.4500
  7886.5000    9.6700   12.2470  7886.5000    0.1620   84.9700   88.9020   73.4070    3.4600    3.6800    4.2000    0.3670    2.4750   15.9900
  7887.0000    9.6720   12.3070  7887.0000    0.1830   84.0100   86.1060   76.9960    3.4400    3.6300    4.1500    0.3610    2.4910   15.5200
  7887.5000    9.6740   12.4090  7887.5000    0.2280   85.6340   85.0520   80.5670    3.4100    3.5900    4.6300    0.3610    2.5220   15.7700
  7888.0000    9.6760   12.5470  7888.0000    0.2520   86.9410   84.8260   81.3960    3.3900    3.5500    4.3300    0.3580    2.5520   16.3100
  7888.5000    9.6780   12.6840  7888.5000    0.2520   87.2210   84.6440   79.7590    3.3700    3.5200    3.9600    0.3540    2.5360   16.8600
  7889.0000    9.6810   12.7800  7889.0000    0.2490   86.6760   83.2600   78.1620    3.3400    3.4900    4.0200    0.3630    2.4900   16.6600
  7889.5000    9.6830   12.6750  7889.5000    0.2000   86.1600   81.7520   76.5810    3.3200    3.5300    4.1300    0.3820    2.4760   16.4100
  7890.0000    9.6850   12.6020  7890.0000    0.1850   85.7150   81.8610   74.9720    3.3000    3.5700    4.2600    0.3780    2.4900   16.1700
  7890.5000    9.6870   12.5720  7890.5000    0.1710   85.8420   82.1510   75.0500    3.2700    3.6100    4.2300    0.3710    2.5100   16.0200
  7891.0000    9.6890   12.5460  7891.0000    0.1610   86.5840   80.5000   76.0420    3.3100    3.6500    4.1900    0.3680    2.4910   16.2100
  7891.5000    9.6910   12.3030  7891.5000    0.1810   85.9510   81.4770   77.0750    3.3600    3.6900    4.1500    0.3780    2.5160   16.4000
  7892.0000    9.6930   11.8520  7892.0000    0.1970   85.2650   82.8070   76.9310    3.4100    3.7300    4.3700    0.3860    2.5290   16.5800
  7892.5000    9.6950   11.8640  7892.5000    0.1470   84.5750   80.4120   76.2620    3.4600    3.7700    4.5900    0.3950    2.5080   16.7600
  7893.0000    9.6980   11.9400  7893.0000    0.1530   83.8910   78.1080   76.5810    3.5200    3.8100    4.4100    0.3780    2.5310   16.6200
  7893.5000    9.7000   11.9930  7893.5000    0.1620   83.3800   79.0880   76.1500    3.5700    3.8400    4.3400    0.3610    2.5540   15.8500
  7894.0000    9.6950   11.9770  7894.0000    0.1980   83.7550   80.2690   74.9390    3.6200    3.8600    4.8900    0.3550    2.5740   15.0800
  7894.5000    9.6850   11.9620  7894.5000    0.1820   83.9880   81.4380   74.6650    3.6700    3.8800    4.7900    0.3640    2.5260   14.3100
  7895.0000    9.6750   11.9480  7895.0000    0.1630   84.1190   82.6090   76.4270    3.7200    3.9100    4.6100    0.3700    2.4820   13.5600
  7895.5000    9.6650   11.9440  7895.5000    0.1880   84.2480   83.8260   78.1810    3.7800    3.9300    4.4300    0.3770    2.4900   12.4600
  7896.0000    9.6540   12.0000  7896.0000    0.1910   84.3500   82.4000   77.9990    3.8300    3.9600    4.1900    0.3860    2.4530   11.2400
  7896.5000    9.6440   12.0520  7896.5000    0.1640   85.5230   80.4510   76.4740    3.8900    3.8600    4.2400    0.3980    2.4030   10.0000
  7897.0000    9.6340   12.1820  7897.0000    0.1500   91.1970   78.4860   74.2110    3.6100    3.7200    4.3200    0.4110    2.3720    8.7600
  7897.5000    9.6240   12.4480  7897.5000    0.2110   96.4830   76.5190   71.9420    3.2900    3.5200    4.4100    0.4440    2.3370    7.5400
  7898.0000    9.6320   13.0960  7898.0000    0.2440   97.2150   74.7790   70.7200    3.0000    3.2400    4.4600    0.4760    2.2420    5.7100
  7898.5000    9.6490   13.5390  7898.5000    0.2420   98.9600   75.8780   73.4320    2.7400    2.9800    3.5700    0.5230    2.1670    3.5000
  7899.0000    9.6670   13.2920  7899.0000    0.2050   96.6830   77.0800   76.0140    2.6400    2.8000    3.0600    0.5440    2.1570    1.2700
  7899.5000    9.6840   12.7310  7899.5000    0.1970   90.5450   75.6270   76.7460    2.6200    2.9300    2.6500    0.5290    2.2400   -0.8900
