~Version Information Section
 VERS.      2.0         :CWLS LOG ASCII STANDARD - VERSION 2.0
 WRAP.      NO          :SINGLE LINE PER DEPTH STEP
 CREA.      8/24/2011 12:45:27
~Well Information Section
#MNEM.UNIT                      VALUE/NAME                 DESCRIPTION
#----.----     ----------------------------------   --------------------
 STRT .FT           1040.0000                         :START DEPTH
 STOP .FT          11320.0000                         :STOP DEPTH
 STEP .FT              0.5000                         :STEP VALUE
 NULL .             -999.0000                         :NULL VALUE
 SRVC .          SCH                                  :Service Company/Logging company
 DATE .          08/24/2011                           :LAS file Creation Date
 WELL .          PENOBSCOT B-41                       :Well Name
 COMP .          SHELL CANADARESOURCES LIMITED        :Company
 FLD  .          WILDCAT                              :Field
 STATE.          CALAGARY, ALBERTA                    :State
 COUNT.          CANADA                               :Country
 LOC  .          44'10'02; N LAT|60'06'32; W LO       :Location
 LATI .          0                                    :Latitude/Northing
 LONG .          0                                    :Longitude/Easting
 PDAT .          UNK                                  :Permanent Datum
 EPDAT.          0.0000                               :Elevation of Permanent Datum
 KB   .          99.0000                              :KB Elevation
 GL   .          -387.0000                            :GL Elevation
 RWS  .          0                                    :Def_Rw
 WST  .          0                                    :Def_Rwt
 ERT  .          0.0000                               :RT Elevation
 CNTY .          NOVA SCOTIA SHELF                    :County
~Curve Information Section
#MNEM  .UNIT         CURVE DESCRIPTION
#----  .----         -------------------------
 DEPTH .FT           :1 Depth
 CALD  .IN           :2 Caliper    Density Caliper
 CALS  .IN           :3 Caliper    DT Caliper
 DEPTH .FT           :4 Depth
 DRHO  .G/C3         :5 Drho       Delta Rho
 DT    .US/FT        :6 Sonic      Delta-T
 GRD   .GAPI         :7 GammaRay   Gamma Ray Density
 GRS   .GAPI         :8 GammaRay   Gamma Ray Sonic
 ILD   .OHMM         :9 DeepRes    Deep Induction Standard Processed Resistivity
 ILM   .OHMM         :10 MedRes    Medium Induction Standard Processed Resistivity
 LL8   .OHMM         :11 LL8       Shallow - Latero-Log 8
 NPHISS.V/V          :12 Neutron    Neutron Porosity – Ss Mtx
 RHOB  .G/C3         :13 Density    Bulk Density
 SP    .MV           :14 SP         Spontaneous Potential
~Parameter Information Section
#MNEM.UNIT                      VALUE                       DESCRIPTION
#----.----     ----------------------------------   --------------------
~A  DEPTH     CALD      CALS      DEPTH      DRHO       DT        GRD       GRS       ILD       ILM       LL8     NPHISS     RHOB       SP    
# ...
  1768.0000 -999.0000   10.2260  1768.0000 -999.0000  150.9390 -999.0000   35.3950    2.4100    2.1100    2.5200 -999.0000 -999.0000  -25.2500
  1768.5000 -999.0000   10.2250  1768.5000 -999.0000  147.3060 -999.0000   35.7910    2.3500    2.1700    2.4600 -999.0000 -999.0000  -24.2200
  1769.0000 -999.0000   10.2240  1769.0000 -999.0000  152.3270 -999.0000   36.0570    2.2900    2.1900    2.3700 -999.0000 -999.0000  -25.7500
  1769.5000 -999.0000   10.2220  1769.5000 -999.0000  155.7550 -999.0000   36.7430    2.2400    2.1600    2.2900 -999.0000 -999.0000  -27.4700
  1770.0000 -999.0000   10.2210  1770.0000 -999.0000  143.2410 -999.0000   37.5810    2.1800    2.1300    2.2100 -999.0000 -999.0000  -27.5400
  1770.5000 -999.0000   10.2200  1770.5000 -999.0000  131.6590 -999.0000   38.4400    2.1200    2.1100    2.1200 -999.0000 -999.0000  -27.2500
  1771.0000 -999.0000   10.2180  1771.0000 -999.0000  128.7180 -999.0000   37.8520    2.0700    2.0800    2.2600 -999.0000 -999.0000  -26.9500
  1771.5000 -999.0000   10.2170  1771.5000 -999.0000  139.6920 -999.0000   35.9480    2.0200    2.0600    2.5600 -999.0000 -999.0000  -27.1200
  1772.0000 -999.0000   10.2150  1772.0000 -999.0000  143.9260 -999.0000   34.0160    1.9700    2.0700    2.4400 -999.0000 -999.0000  -27.5000
  1772.5000 -999.0000   10.2140  1772.5000 -999.0000  140.7830 -999.0000   33.8900    2.0100    2.0900    2.2400 -999.0000 -999.0000  -27.8800
  1773.0000 -999.0000   10.2130  1773.0000 -999.0000  137.1670 -999.0000   35.1960    2.0800    2.1000    2.0600 -999.0000 -999.0000  -27.7200
  1773.5000 -999.0000   10.2110  1773.5000 -999.0000  136.3720 -999.0000   36.5130    2.0600    2.1200    2.2500 -999.0000 -999.0000  -27.0600
  1774.0000 -999.0000   10.2100  1774.0000 -999.0000  139.1090 -999.0000   37.5580    2.0300    2.0800    2.4700 -999.0000 -999.0000  -26.3900
  1774.5000 -999.0000   10.2030  1774.5000 -999.0000  142.2690 -999.0000   38.0820    2.0100    2.0200    2.3700 -999.0000 -999.0000  -25.7300
  1775.0000 -999.0000   10.1960  1775.0000 -999.0000  148.4090 -999.0000   38.6090    1.9900    2.0300    2.2600 -999.0000 -999.0000  -25.0600
  1775.5000 -999.0000   10.1890  1775.5000 -999.0000  154.4630 -999.0000   39.2060    1.9900    2.0300    2.1000 -999.0000 -999.0000  -24.3900
  1776.0000 -999.0000   10.1820  1776.0000 -999.0000  151.5830 -999.0000   41.3760    1.9900    2.0400    2.1400 -999.0000 -999.0000  -24.2200
  1776.5000 -999.0000   10.1760  1776.5000 -999.0000  148.3000 -999.0000   43.5940    1.9900    2.0500    2.2400 -999.0000 -999.0000  -24.3400
  1777.0000 -999.0000   10.1690  1777.0000 -999.0000  153.6310 -999.0000   44.9920    2.0000    2.0500    2.3300 -999.0000 -999.0000  -24.4500
  1777.5000 -999.0000   10.1620  1777.5000 -999.0000  159.9450 -999.0000   45.2740    2.0000    2.0600    2.4700 -999.0000 -999.0000  -24.5300
  1778.0000 -999.0000   10.1550  1778.0000 -999.0000  166.2600 -999.0000   44.8710    2.0000    2.0600    2.4300 -999.0000 -999.0000  -24.6200
  1778.5000 -999.0000   10.1480  1778.5000 -999.0000  171.0640 -999.0000   43.5710    2.0000    2.0700    2.3500 -999.0000 -999.0000  -24.6900
  1779.0000 -999.0000   10.1410  1779.0000 -999.0000  166.9940 -999.0000   42.2640    2.0000    2.0800    2.2800 -999.0000 -999.0000  -24.4500
  1779.5000 -999.0000   10.1340  1779.5000 -999.0000  159.6320 -999.0000   43.4720    1.9700    2.0400    2.2400 -999.0000 -999.0000  -23.5200
  1780.0000 -999.0000   10.1270  1780.0000 -999.0000  164.9390 -999.0000   44.9920    1.9200    1.9800    2.4300 -999.0000 -999.0000  -22.9300
  1780.5000 -999.0000   10.1200  1780.5000 -999.0000  172.2110 -999.0000   45.5360    1.8800    1.9200    2.3900 -999.0000 -999.0000  -22.9300
  1781.0000 -999.0000   10.1130  1781.0000 -999.0000  179.7120 -999.0000   45.1830    1.8400    1.8600    2.3400 -999.0000 -999.0000  -23.8300
  1781.5000 -999.0000   10.0980  1781.5000 -999.0000  182.4950 -999.0000   46.2230    1.8100    1.8300    2.3000 -999.0000 -999.0000  -25.2700
  1782.0000 -999.0000   10.0760  1782.0000 -999.0000  181.5340 -999.0000   47.3620    1.9000    1.9400    2.2500 -999.0000 -999.0000  -26.7400
  1782.5000 -999.0000   10.0530  1782.5000 -999.0000  173.2140 -999.0000   47.1160    2.0000    2.0400    2.2000 -999.0000 -999.0000  -28.2200
  1783.0000 -999.0000   10.0310  1783.0000 -999.0000  139.5980 -999.0000   43.9540    2.1200    2.1900    2.1600 -999.0000 -999.0000  -27.3600
  1783.5000 -999.0000   10.0170  1783.5000 -999.0000   96.7040 -999.0000   40.8340    2.2600    2.7200    2.1400 -999.0000 -999.0000  -26.1900
  1784.0000 -999.0000   10.0040  1784.0000 -999.0000   89.8760 -999.0000   37.6130    2.8400    3.3900    8.9900 -999.0000 -999.0000  -25.0100
  1784.5000 -999.0000    9.9870  1784.5000 -999.0000   89.9050 -999.0000   38.5030    3.6000    4.2200   22.5300 -999.0000 -999.0000  -23.8000
  1785.0000 -999.0000    9.8310  1785.0000 -999.0000   89.9350 -999.0000   40.3590    4.9700    5.2300   56.4200 -999.0000 -999.0000  -23.7200
  1785.5000 -999.0000    9.9150  1785.5000 -999.0000  108.5390 -999.0000   42.4890    7.0100    5.7000  114.1900 -999.0000 -999.0000  -24.0500
  1786.0000 -999.0000   10.1480  1786.0000 -999.0000   98.9220 -999.0000   45.7820    9.7000    6.1600   83.1000 -999.0000 -999.0000  -24.4100
  1786.5000 -999.0000   10.3830  1786.5000 -999.0000  109.5840 -999.0000   49.0440    9.3400    5.5500   98.2700 -999.0000 -999.0000  -23.5500
  1787.0000 -999.0000   10.6190  1787.0000 -999.0000  124.5520 -999.0000   52.2980    3.8400    5.0200   55.0100 -999.0000 -999.0000  -22.4200
  1787.5000 -999.0000   10.7840  1787.5000 -999.0000  139.5360 -999.0000   55.1330    3.3600    4.3600   16.4400 -999.0000 -999.0000  -21.2900
  1788.0000 -999.0000   10.8570  1788.0000 -999.0000  154.6750 -999.0000   56.6460    2.9500    3.6200    4.4400 -999.0000 -999.0000  -20.9000
  1788.5000 -999.0000   10.9310  1788.5000 -999.0000  159.2530 -999.0000   57.6660    2.5900    3.0100    2.8300 -999.0000 -999.0000  -20.6300
  1789.0000 -999.0000   10.9620  1789.0000 -999.0000  160.4190 -999.0000   58.1070    2.3000    2.5000    2.8000 -999.0000 -999.0000  -20.3600
  1789.5000 -999.0000   10.9440  1789.5000 -999.0000  161.4270 -999.0000   57.8190    2.1400    2.2600    2.7600 -999.0000 -999.0000  -20.1000
  1790.0000 -999.0000   10.9260  1790.0000 -999.0000  162.2270 -999.0000   56.7200    2.0000    2.0400    2.7300 -999.0000 -999.0000  -20.1000
  1790.5000 -999.0000   10.9100  1790.5000 -999.0000  162.7350 -999.0000   55.4580    1.8100    2.0500    2.6900 -999.0000 -999.0000  -20.6700
  1791.0000 -999.0000   10.9180  1791.0000 -999.0000  162.2600 -999.0000   53.8200    1.8500    2.0700    2.5700 -999.0000 -999.0000  -21.2300
  1791.5000 -999.0000   10.9250  1791.5000 -999.0000  159.7910 -999.0000   52.1390    1.9100    2.0900    2.4400 -999.0000 -999.0000  -21.8000
  1792.0000 -999.0000   10.9320  1792.0000 -999.0000  156.5210 -999.0000   51.1260    1.9900    2.1100    2.3400 -999.0000 -999.0000  -22.3600
  1792.5000 -999.0000   10.9390  1792.5000 -999.0000  154.1650 -999.0000   50.2710    1.9800    2.1300    2.4100 -999.0000 -999.0000  -22.9100
  1793.0000 -999.0000   10.9450  1793.0000 -999.0000  161.9860 -999.0000   49.4220    1.9600    2.1600    2.4700 -999.0000 -999.0000  -22.7500
  1793.5000 -999.0000   10.9400  1793.5000 -999.0000  168.0670 -999.0000   48.5130    1.9500    2.1300    2.5400 -999.0000 -999.0000  -21.6300
  1794.0000 -999.0000   10.9110  1794.0000 -999.0000  172.4180 -999.0000   47.5530    1.9300    2.1100    2.4100 -999.0000 -999.0000  -21.0000
  1794.5000 -999.0000   10.8820  1794.5000 -999.0000  172.6370 -999.0000   46.5910    1.9800    2.0800    2.2400 -999.0000 -999.0000  -21.8600
  1795.0000 -999.0000   10.8530  1795.0000 -999.0000  160.5590 -999.0000   45.6070    2.0500    2.2100    2.0800 -999.0000 -999.0000  -22.6700
  1795.5000 -999.0000   10.8280  1795.5000 -999.0000  145.2190 -999.0000   46.0390    2.1200    2.4000    1.8600 -999.0000 -999.0000  -23.4800
