~Version Information Section
 VERS.      2.0         :CWLS LOG ASCII STANDARD - VERSION 2.0
 WRAP.      NO          :SINGLE LINE PER DEPTH STEP
 CREA.      8/24/2011 12:45:27
~Well Information Section
#MNEM.UNIT                      VALUE/NAME                 DESCRIPTION
#----.----     ----------------------------------   --------------------
 STRT .FT           1040.0000                         :START DEPTH
 STOP .FT          11320.0000                         :STOP DEPTH
 STEP .FT              0.5000                         :STEP VALUE
 NULL .             -999.0000                         :NULL VALUE
 SRVC .          SCH                                  :Service Company/Logging company
 DATE .          08/24/2011                           :LAS file Creation Date
 WELL .          PENOBSCOT B-41                       :Well Name
 COMP .          SHELL CANADARESOURCES LIMITED        :Company
 FLD  .          WILDCAT                              :Field
 STATE.          CALAGARY, ALBERTA                    :State
 COUNT.          CANADA                               :Country
 LOC  .          44'10'02; N LAT|60'06'32; W LO       :Location
 LATI .          0                                    :Latitude/Northing
 LONG .          0                                    :Longitude/Easting
 PDAT .          UNK                                  :Permanent Datum
 EPDAT.          0.0000                               :Elevation of Permanent Datum
 KB   .          99.0000                              :KB Elevation
 GL   .          -387.0000                            :GL Elevation
 RWS  .          0                                    :Def_Rw
 WST  .          0                                    :Def_Rwt
 ERT  .          0.0000                               :RT Elevation
 CNTY .          NOVA SCOTIA SHELF                    :County
~Curve Information Section
#MNEM  .UNIT         CURVE DESCRIPTION
#----  .----         -------------------------
 DEPTH .FT           :1 Depth
 CALD  .IN           :2 Caliper    Density Caliper
 CALS  .IN           :3 Caliper    DT Caliper
 DEPTH .FT           :4 Depth
 DRHO  .G/C3         :5 Drho       Delta Rho
 DT    .US/FT        :6 Sonic      Delta-T
 GRD   .GAPI         :7 GammaRay   Gamma Ray Density
 GRS   .GAPI         :8 GammaRay   Gamma Ray Sonic
 ILD   .OHMM         :9 DeepRes    Deep Induction Standard Processed Resistivity
 ILM   .OHMM         :10 MedRes    Medium Induction Standard Processed Resistivity
 LL8   .OHMM         :11 LL8       Shallow - Latero-Log 8
 NPHISS.V/V          :12 Neutron    Neutron Porosity – Ss Mtx
 RHOB  .G/C3         :13 Density    Bulk Density
 SP    .MV           :14 SP         Spontaneous Potential
~Parameter Information Section
#MNEM.UNIT                      VALUE                       DESCRIPTION
#----.----     ----------------------------------   --------------------
~A  DEPTH     CALD      CALS      DEPTH      DRHO       DT        GRD       GRS       ILD       ILM       LL8     NPHISS     RHOB       SP    
# ...
  8544.0000    9.5900   12.8730  8544.0000    0.1690   82.0170   80.8270   66.3640    3.4400    3.5400    4.0600    0.4500    2.0250   13.8400
  8544.5000    9.5860   12.7190  8544.5000    0.2030   79.5790   77.5670   65.4910    3.6300    3.8200    3.8900    0.4890    2.0020   14.0600
  8545.0000    9.5810   12.6910  8545.0000    0.2190   77.5740   74.2050   67.0900    3.8300    4.1200    4.1000    0.5270    2.0020   13.5700
  8545.5000    9.5840   12.7480  8545.5000    0.1360   80.2720   73.1370   68.8480    3.9600    4.4000    4.5100    0.5490    1.8630   13.0900
  8546.0000    9.5890   12.9000  8546.0000    0.1140   82.5620   75.0890   70.6080    3.6600    4.5500    5.5100    0.5710    1.7880   13.4400
  8546.5000    9.5930   13.1320  8546.5000    0.1330   84.5630   77.0200   72.2300    3.4600    4.1100    6.4900    0.5930    1.7500   14.0200
  8547.0000    9.5970   13.8450  8547.0000    0.1210   87.1340   78.9990   71.3300    3.2700    3.6400    4.8500    0.6010    1.8360   14.5300
  8547.5000    9.6020   14.5330  8547.5000    0.1270   93.0900   77.1010   70.3380    3.0400    3.2800    4.8700    0.6060    1.8680   14.7000
  8548.0000    9.6060   14.9640  8548.0000    0.1340   97.7290   74.6400   69.3580    2.8100    3.0200    4.8900    0.6070    1.8120   14.8600
  8548.5000    9.6100   14.7150  8548.5000    0.1350   99.9500   76.5880   68.3790    2.5900    2.7900    3.3900    0.5970    1.7250   15.0300
  8549.0000    9.6150   14.4670  8549.0000    0.1470   98.6870   79.1000   67.3850    2.4000    2.6000    2.9000    0.5870    2.0020   15.2000
  8549.5000    9.6190   14.6930  8549.5000    0.1630   96.2410   81.6210   66.3350    2.3000    2.4600    3.0300    0.5500    2.0030   15.3700
  8550.0000    9.6230   14.9730  8550.0000    0.1930   94.9010   83.7180   69.3500    2.2200    2.3300    3.1000    0.4840    2.1760   15.5400
  8550.5000    9.6280   15.0940  8550.5000    0.2060   97.8710   84.8070   72.7820    2.1400    2.2300    2.9700    0.4510    2.1450   15.6400
  8551.0000    9.6320   14.3410  8551.0000    0.1790   93.9320   81.7360   76.2230    2.0300    2.1700    2.8700    0.4420    2.1610   15.2000
  8551.5000    9.6360   13.0980  8551.5000    0.1240   90.9270   78.2250   79.6490    2.1000    2.3400    2.7700    0.4380    2.2150   14.7400
  8552.0000    9.6400   12.5700  8552.0000    0.0610   88.1950   72.8340   83.0970    2.2500    2.4900    3.1200    0.3890    2.3360   14.2900
  8552.5000    9.6100   12.7270  8552.5000    0.0400   87.2600   63.1960   85.7940    2.4000    2.6500    3.0700    0.3360    2.4320   13.9100
  8553.0000    9.5770   12.8980  8553.0000    0.0280   86.6910   51.1220   87.2740    2.5900    2.9100    3.0100    0.2830    2.4840   14.1200
  8553.5000    9.5440   12.5560  8553.5000    0.0230   90.5360   38.5230   84.7320    2.8300    3.2100    4.4900    0.2320    2.5110   14.3300
  8554.0000    9.5110   12.1850  8554.0000    0.0230   89.6850   30.2930   80.6010    3.0900    3.5400    4.8100    0.1800    2.5180   14.2000
  8554.5000    9.4780   11.8170  8554.5000    0.0240   87.1040   28.7760   76.1530    3.3800    3.9000    4.4700    0.1510    2.5020   11.5900
  8555.0000    9.4450   11.4880  8555.0000    0.0260   81.4840   27.4650   63.7850    3.7000    4.3900    4.2400    0.1680    2.4600    6.5100
  8555.5000    9.4120   11.2970  8555.5000    0.0550   69.5750   28.7240   51.2880    4.0400    5.3400    4.1100    0.1890    2.4670   -0.8500
  8556.0000    9.3790   11.2220  8556.0000    0.0760   65.4160   30.1610   39.5580    4.2600    6.5000   12.3600    0.2100    2.4330   -9.0800
  8556.5000    9.3450   11.1510  8556.5000    0.0620   63.9110   33.3050   32.8110    4.1400    7.4500   23.8000    0.2310    2.3780  -22.1200
  8557.0000    9.3120   11.0810  8557.0000    0.0480   67.5280   36.4710   30.6730    4.0200    7.6600   23.0500    0.2520    2.3440  -29.6700
  8557.5000    9.2800   10.9400  8557.5000    0.0340   69.9800   38.2520   28.7680    3.4900    6.8100   21.7700    0.2730    2.3170  -35.7600
  8558.0000    9.2610   10.7710  8558.0000    0.0250   72.4320   39.7620   27.4260    2.9800    5.0300   18.1500    0.2790    2.3060  -41.0500
  8558.5000    9.2590   10.6030  8558.5000    0.0190   74.8910   41.2810   27.9530    2.5400    3.6800   12.9900    0.2740    2.2980  -45.5800
  8559.0000    9.2580   10.4330  8559.0000    0.0220   77.6330   42.7470   30.0920    1.9600    2.7700    9.3000    0.2690    2.3080  -50.0200
  8559.5000    9.2560   10.3040  8559.5000    0.0250   80.9870   46.4540   32.2460    1.4900    2.1600    6.8600    0.2710    2.3190  -53.3900
  8560.0000    9.2550   10.2090  8560.0000    0.0230   84.3120   51.0030   34.4010    1.1300    1.7600    6.0700    0.2730    2.3310  -54.4300
  8560.5000    9.2530   10.1570  8560.5000    0.0210   86.0460   55.6180   36.5550    0.9600    1.4900    5.4600    0.2750    2.3430  -55.1300
  8561.0000    9.2520   10.1040  8561.0000    0.0210   85.8860   60.2220   38.7340    0.8500    1.3900    5.5200    0.2800    2.3630  -54.7400
  8561.5000    9.2510   10.0500  8561.5000    0.0350   85.5410   64.5970   42.0570    0.7900    1.2900    5.6400    0.2850    2.4020  -53.4800
  8562.0000    9.2490   10.0040  8562.0000    0.0430   85.6530   66.5820   47.1170    0.7600    1.2300    5.7600    0.2900    2.4420  -52.1500
  8562.5000    9.2480    9.9670  8562.5000    0.0720   84.9620   68.0610   52.1280    0.7200    1.2100    5.8800    0.3010    2.4810  -49.3100
  8563.0000    9.2460    9.9440  8563.0000    0.0890   83.8210   69.1940   58.7950    0.7500    1.2000    6.0100    0.3140    2.5180  -46.3100
  8563.5000    9.2450    9.9670  8563.5000    0.0660   82.9550   65.4650   65.3780    0.7800    1.3800    6.1000    0.3260    2.4800  -43.3200
  8564.0000    9.2430    9.9880  8564.0000    0.0430   82.3970   60.4230   71.7840    0.8500    1.5000    6.1400    0.3360    2.4170  -40.3200
  8564.5000    9.2420   10.0100  8564.5000    0.0280   82.6270   54.9100   75.9160    0.9500    1.6300    6.1700    0.3130    2.3770  -37.3200
  8565.0000    9.2400    9.9730  8565.0000    0.0130   82.8610   57.3800   76.6800    1.0600    1.7700    6.2000    0.2930    2.3400  -34.2700
  8565.5000    9.2390    9.8820  8565.5000    0.0260   82.8550   61.2640   74.7650    1.1900    1.8600    5.4200    0.2860    2.3800  -32.4700
  8566.0000    9.2370    9.7910  8566.0000    0.0260   83.8590   61.2450   71.1200    1.3000    1.9200    4.7300    0.2950    2.3990  -30.9500
  8566.5000    9.2360    9.7000  8566.5000    0.0390   84.8630   58.9220   63.9220    1.3300    1.9900    4.0400    0.3100    2.4030  -29.5300
  8567.0000    9.2340    9.6660  8567.0000    0.0510   85.5150   57.0130   56.6370    1.3300    2.0100    4.7100    0.3220    2.4160  -31.2600
  8567.5000    9.2330    9.6740  8567.5000    0.0620   84.4870   62.8340   53.7140    1.3200    2.0100    4.6600    0.3130    2.4110  -33.2400
  8568.0000    9.2310    9.6750  8568.0000    0.0690   83.4590   68.8070   57.0750    1.3200    1.9800    4.5900    0.3050    2.4380  -32.9400
  8568.5000    9.2300    9.6400  8568.5000    0.0640   82.4310   74.7360   62.2160    1.3100    1.9200    6.8600    0.2950    2.4290  -32.0700
  8569.0000    9.2280    9.6060  8569.0000    0.1350   81.4360   80.6540   67.3180    1.3400    1.9600    5.9900    0.3080    2.4840  -31.1700
  8569.5000    9.2270    9.5720  8569.5000    0.1630   82.2560   85.9480   68.7960    1.3600    2.0100    5.7100    0.3260    2.5110  -29.8800
  8570.0000    9.2250    9.5460  8570.0000    0.1040   83.0500   90.8520   69.5910    1.4200    2.0700    7.1100    0.3410    2.4800  -27.8900
  8570.5000    9.2240    9.6570  8570.5000    0.0560   83.0790   88.2790   70.2720    1.5100    2.1600    6.7000    0.3490    2.4460  -25.0300
  8571.0000    9.2230    9.7690  8571.0000    0.0170   82.9640   82.0140   75.2440    1.6100    2.2400    5.9500    0.3560    2.4290  -21.5800
  8571.5000    9.2220    9.8810  8571.5000    0.0420   83.3780   70.5910   80.6970    1.7200    2.3300    5.1200    0.3590    2.4470  -18.1300
