~Version Information Section
 VERS.      2.0         :CWLS LOG ASCII STANDARD - VERSION 2.0
 WRAP.      NO          :SINGLE LINE PER DEPTH STEP
 CREA.      8/24/2011 12:45:27
~Well Information Section
#MNEM.UNIT                      VALUE/NAME                 DESCRIPTION
#----.----     ----------------------------------   --------------------
 STRT .FT           1040.0000                         :START DEPTH
 STOP .FT          11320.0000                         :STOP DEPTH
 STEP .FT              0.5000                         :STEP VALUE
 NULL .             -999.0000                         :NULL VALUE
 SRVC .          SCH                                  :Service Company/Logging company
 DATE .          08/24/2011                           :LAS file Creation Date
 WELL .          PENOBSCOT B-41                       :Well Name
 COMP .          SHELL CANADARESOURCES LIMITED        :Company
 FLD  .          WILDCAT                              :Field
 STATE.          CALAGARY, ALBERTA                    :State
 COUNT.          CANADA                               :Country
 LOC  .          44'10'02; N LAT|60'06'32; W LO       :Location
 LATI .          0                                    :Latitude/Northing
 LONG .          0                                    :Longitude/Easting
 PDAT .          UNK                                  :Permanent Datum
 EPDAT.          0.0000                               :Elevation of Permanent Datum
 KB   .          99.0000                              :KB Elevation
 GL   .          -387.0000                            :GL Elevation
 RWS  .          0                                    :Def_Rw
 WST  .          0                                    :Def_Rwt
 ERT  .          0.0000                               :RT Elevation
 CNTY .          NOVA SCOTIA SHELF                    :County
~Curve Information Section
#MNEM  .UNIT         CURVE DESCRIPTION
#----  .----         -------------------------
 DEPTH .FT           :1 Depth
 CALD  .IN           :2 Caliper    Density Caliper
 CALS  .IN           :3 Caliper    DT Caliper
 DEPTH .FT           :4 Depth
 DRHO  .G/C3         :5 Drho       Delta Rho
 DT    .US/FT        :6 Sonic      Delta-T
 GRD   .GAPI         :7 GammaRay   Gamma Ray Density
 GRS   .GAPI         :8 GammaRay   Gamma Ray Sonic
 ILD   .OHMM         :9 DeepRes    Deep Induction Standard Processed Resistivity
 ILM   .OHMM         :10 MedRes    Medium Induction Standard Processed Resistivity
 LL8   .OHMM         :11 LL8       Shallow - Latero-Log 8
 NPHISS.V/V          :12 Neutron    Neutron Porosity – Ss Mtx
 RHOB  .G/C3         :13 Density    Bulk Density
 SP    .MV           :14 SP         Spontaneous Potential
~Parameter Information Section
#MNEM.UNIT                      VALUE                       DESCRIPTION
#----.----     ----------------------------------   --------------------
~A  DEPTH     CALD      CALS      DEPTH      DRHO       DT        GRD       GRS       ILD       ILM       LL8     NPHISS     RHOB       SP    
# ...
  6528.0000    9.3470   11.8970  6528.0000    0.1660  102.3140   80.4190   74.7460    2.2300    2.4000    2.6200    0.5040    2.3510   -1.5700
  6528.5000    9.3460   11.6480  6528.5000    0.1350   99.4280   76.2890   70.9670    2.0800    2.4600    2.4000    0.4990    2.3470   -3.7300
  6529.0000    9.3450   11.7180  6529.0000    0.1190   98.1690   70.6210   66.5300    1.8300    2.4800    2.4800    0.4900    2.3850   -5.9700
  6529.5000    9.3450   11.7930  6529.5000    0.2060   98.4900   62.7470   62.0340    1.6200    2.2900    2.5600    0.4750    2.4100  -10.8000
  6530.0000    9.3440   11.3140  6530.0000    0.1250   98.8270   54.9090   57.5450    1.4100    2.0800    2.6000    0.4630    2.3030  -18.6900
  6530.5000    9.3430   10.5070  6530.5000    0.0390   99.1450   47.0020   53.1230    1.2500    1.8300    2.3200    0.4750    2.2070  -27.0200
  6531.0000    9.3420   10.3550  6531.0000    0.0490   95.8340   42.4240   49.5760    1.1000    1.6000    2.2100    0.4540    2.2340  -36.0600
  6531.5000    9.3420   10.5740  6531.5000    0.0530   94.4990   39.7480   46.9670    0.9600    1.3600    2.5500    0.4250    2.2630  -44.4500
  6532.0000    9.3430   10.7270  6532.0000    0.0410   94.9320   40.8950   45.1210    0.8800    1.1500    2.8500    0.3810    2.2730  -48.0600
  6532.5000    9.3440   10.8190  6532.5000    0.0480   94.3960   42.0810   45.3790    0.8100    1.0900    3.1800    0.3670    2.2870  -51.5100
  6533.0000    9.3460   10.7910  6533.0000    0.0570   94.8190   43.2460   45.9590    0.7500    1.0900    3.4000    0.3720    2.2830  -52.6800
  6533.5000    9.3480   10.6490  6533.5000    0.0460   95.8750   44.4080   47.5120    0.7400    1.1000    3.5800    0.3790    2.2430  -53.9000
  6534.0000    9.3500   10.5270  6534.0000    0.0350   96.8370   45.5690   49.0280    0.7300    1.1100    3.8200    0.3860    2.2360  -53.4300
  6534.5000    9.3520   10.6540  6534.5000    0.0350   97.6890   46.7300   50.4080    0.7500    1.1500    3.7300    0.3810    2.2350  -52.7400
  6535.0000    9.3540   10.7850  6535.0000    0.0410   97.4990   48.0010   50.3380    0.7800    1.1900    3.6500    0.3740    2.2510  -51.8000
  6535.5000    9.3560   10.9150  6535.5000    0.0380   96.7960   49.8240   49.7970    0.8200    1.2300    3.8300    0.3680    2.2430  -50.8900
  6536.0000    9.3580   11.0450  6536.0000    0.0510   97.3320   51.6650   52.4780    0.8500    1.2700    3.9300    0.3660    2.2420  -48.0000
  6536.5000    9.3600   11.1740  6536.5000    0.0570   98.4030   56.9250   60.3950    0.8800    1.2700    3.7700    0.3760    2.2610  -44.6600
  6537.0000    9.3620   11.3040  6537.0000    0.0520   99.7520   65.0770   68.9710    0.9200    1.2800    3.6700    0.3830    2.2820  -38.2100
  6537.5000    9.3630   11.4330  6537.5000    0.0690   98.5350   72.5120   77.3600    0.9600    1.3300    3.4800    0.4110    2.3310  -28.1200
  6538.0000    9.3650   11.5220  6538.0000    0.0780   96.8900   74.5500   81.0230    1.0500    1.4100    3.3000    0.4430    2.3740  -20.1200
  6538.5000    9.3670   11.5430  6538.5000    0.0490   95.2450   76.7570   80.3900    1.1400    1.5500    3.2500    0.4340    2.4020  -12.2500
  6539.0000    9.3690   11.5660  6539.0000    0.0380   93.7750   76.3960   77.0250    1.2300    1.7200    3.1600    0.4270    2.4150   -9.2000
  6539.5000    9.3710   11.5880  6539.5000    0.0430   93.0580   74.1610   73.6960    1.3900    1.9000    3.0500    0.4330    2.4210   -6.9300
  6540.0000    9.3730   11.6010  6540.0000    0.0500   91.0940   71.8640   70.3720    1.5600    2.0300    2.9500    0.4410    2.4180   -7.9100
  6540.5000    9.3750   11.6070  6540.5000    0.0570   88.4650   70.7600   67.3910    1.7400    2.1600    2.8800    0.4250    2.4150   -9.2500
  6541.0000    9.3770   11.6130  6541.0000    0.0640   89.3050   69.9270   65.6240    1.9200    2.2600    5.3000    0.4020    2.4250  -10.5800
  6541.5000    9.3790   11.6200  6541.5000    0.0550   89.8510   69.0950   66.6640    2.0600    2.3200    5.0000    0.3790    2.4530  -11.2500
  6542.0000    9.3810   11.6260  6542.0000    0.0540   87.5700   68.2150   68.4560    2.1100    2.3800    4.4300    0.3600    2.4510  -10.3600
  6542.5000    9.3800   11.6320  6542.5000    0.0610   87.6320   69.3690   70.2600    2.1500    2.4300    3.9400    0.3550    2.4740   -9.5000
  6543.0000    9.3780   11.6570  6543.0000    0.0550   88.0130   72.5170   72.0500    2.2000    2.4900    3.6500    0.3620    2.4580   -8.2800
  6543.5000    9.3760   11.7300  6543.5000    0.0680   88.7190   75.7150   73.8550    2.2300    2.5500    4.2800    0.3910    2.4560   -6.7700
  6544.0000    9.3740   11.8020  6544.0000    0.0780   92.7210   78.9590   73.6660    2.1800    2.4600    4.7100    0.4390    2.4350   -5.2600
  6544.5000    9.3720   11.8720  6544.5000    0.0860   98.9180   78.6900   71.7410    2.1500    2.3700    4.1500    0.4500    2.4250   -3.7300
  6545.0000    9.3700   11.8220  6545.0000    0.1030  103.0360   76.5650   69.7830    2.1200    2.2800    3.5400    0.4780    2.4470   -2.8400
  6545.5000    9.3680   11.7620  6545.5000    0.0630  102.7060   74.4180   67.9160    2.0900    2.2500    2.7800    0.4900    2.4080   -2.0700
  6546.0000    9.3660   11.7040  6546.0000    0.0060  100.4250   73.9740   69.2710    2.0600    2.2200    2.5300    0.4850    2.3670   -1.9100
  6546.5000    9.3640   11.6660  6546.5000    0.0020   96.5770   75.7390   70.8070    2.0300    2.1900    2.9400    0.4520    2.3940   -1.8700
  6547.0000    9.3620   11.7290  6547.0000    0.0110   93.7920   77.4820   72.3310    2.0100    2.1600    3.1800    0.4410    2.4230   -1.8300
  6547.5000    9.3600   11.7900  6547.5000    0.0370   93.3170   79.2300   73.8460    2.0500    2.1500    2.9700    0.4250    2.4510   -1.7900
  6548.0000    9.3580   11.8260  6548.0000    0.0490   93.2360   80.9660   74.8340    2.0700    2.2800    2.8800    0.4280    2.4640   -1.7500
  6548.5000    9.3560   11.7710  6548.5000    0.0400   92.9010   81.3910   75.7180    2.1000    2.3800    3.0500    0.4300    2.4570   -1.7000
  6549.0000    9.3540   11.7170  6549.0000    0.0360   92.5660   80.3380   76.6100    2.1600    2.4800    3.1700    0.4360    2.4660   -1.6700
  6549.5000    9.3520   11.6640  6549.5000    0.0380   92.3150   79.3140   77.2980    2.2400    2.5400    3.2400    0.4410    2.4450   -1.9900
  6550.0000    9.3500   11.6170  6550.0000    0.0460   92.2730   78.9840   75.4460    2.3200    2.5800    3.2300    0.4240    2.4640   -2.6900
  6550.5000    9.3480   11.6160  6550.5000    0.0360   92.2280   78.7420   73.6130    2.4100    2.6200    3.2200    0.4100    2.4340   -3.4000
  6551.0000    9.3460   11.6180  6551.0000    0.0490   91.8600   77.7260   71.7980    2.4900    2.6700    3.2100    0.3960    2.4450   -3.5900
  6551.5000    9.3440   11.5660  6551.5000    0.0510   91.4360   74.9310   69.6590    2.2900    2.7000    3.2500    0.4020    2.4490   -3.3200
  6552.0000    9.3420   11.4740  6552.0000    0.0480   91.8560   71.6270   65.6730    2.1300    2.6800    3.3400    0.4090    2.4430   -3.3500
  6552.5000    9.3430   11.3810  6552.5000    0.0530   92.0230   65.5480   61.6100    1.9800    2.6600    3.3900    0.4170    2.4290   -4.0500
  6553.0000    9.3450   11.2880  6553.0000    0.0400   90.7960   59.4540   55.6880    1.8500    2.5500    2.9500    0.4120    2.3970   -5.6800
  6553.5000    9.3470   11.1960  6553.5000    0.0560   90.2060   53.3720   49.1820    1.7200    2.3200    2.6700    0.4050    2.3850  -12.3200
  6554.0000    9.3490   11.1460  6554.0000    0.0610   90.0170   48.6080   43.4240    1.6000    2.1100    2.6700    0.3770    2.3580  -18.9500
  6554.5000    9.3510   11.1700  6554.5000    0.0640   90.8090   46.3970   42.1130    1.5100    1.9200    3.5500    0.3490    2.3660  -27.4800
  6555.0000    9.3530   11.1930  6555.0000    0.0840   91.4070   48.3970   47.0230    1.4600    1.7600    3.6200    0.3240    2.4000  -33.0100
  6555.5000    9.3560   11.2170  6555.5000    0.0990   85.4390   54.6690   54.4970    1.4100    1.7100    3.6800    0.3050    2.4380  -33.7000
