~Version Information Section
 VERS.      2.0         :CWLS LOG ASCII STANDARD - VERSION 2.0
 WRAP.      NO          :SINGLE LINE PER DEPTH STEP
 CREA.      8/24/2011 12:45:27
~Well Information Section
#MNEM.UNIT                      VALUE/NAME                 DESCRIPTION
#----.----     ----------------------------------   --------------------
 STRT .FT           1040.0000                         :START DEPTH
 STOP .FT          11320.0000                         :STOP DEPTH
 STEP .FT              0.5000                         :STEP VALUE
 NULL .             -999.0000                         :NULL VALUE
 SRVC .          SCH                                  :Service Company/Logging company
 DATE .          08/24/2011                           :LAS file Creation Date
 WELL .          PENOBSCOT B-41                       :Well Name
 COMP .          SHELL CANADARESOURCES LIMITED        :Company
 FLD  .          WILDCAT                              :Field
 STATE.          CALAGARY, ALBERTA                    :State
 COUNT.          CANADA                               :Country
 LOC  .          44'10'02; N LAT|60'06'32; W LO       :Location
 LATI .          0                                    :Latitude/Northing
 LONG .          0                                    :Longitude/Easting
 PDAT .          UNK                                  :Permanent Datum
 EPDAT.          0.0000                               :Elevation of Permanent Datum
 KB   .          99.0000                              :KB Elevation
 GL   .          -387.0000                            :GL Elevation
 RWS  .          0                                    :Def_Rw
 WST  .          0                                    :Def_Rwt
 ERT  .          0.0000                               :RT Elevation
 CNTY .          NOVA SCOTIA SHELF                    :County
~Curve Information Section
#MNEM  .UNIT         CURVE DESCRIPTION
#----  .----         -------------------------
 DEPTH .FT           :1 Depth
 CALD  .IN           :2 Caliper    Density Caliper
 CALS  .IN           :3 Caliper    DT Caliper
 DEPTH .FT           :4 Depth
 DRHO  .G/C3         :5 Drho       Delta Rho
 DT    .US/FT        :6 Sonic      Delta-T
 GRD   .GAPI         :7 GammaRay   Gamma Ray Density
 GRS   .GAPI         :8 GammaRay   Gamma Ray Sonic
 ILD   .OHMM         :9 DeepRes    Deep Induction Standard Processed Resistivity
 ILM   .OHMM         :10 MedRes    Medium Induction Standard Processed Resistivity
 LL8   .OHMM         :11 LL8       Shallow - Latero-Log 8
 NPHISS.V/V          :12 Neutron    Neutron Porosity – Ss Mtx
 RHOB  .G/C3         :13 Density    Bulk Density
 SP    .MV           :14 SP         Spontaneous Potential
~Parameter Information Section
#MNEM.UNIT                      VALUE                       DESCRIPTION
#----.----     ----------------------------------   --------------------
~A  DEPTH     CALD      CALS      DEPTH      DRHO       DT        GRD       GRS       ILD       ILM       LL8     NPHISS     RHOB       SP    
# ...
  9916.0000    8.6400    8.6560  9916.0000    0.0570   73.0220   55.2090   43.2640    2.1500    3.4100   10.9400    0.2260    2.4740  -28.3200
  9916.5000    8.6370    8.6580  9916.5000    0.0630   72.7550   51.2260   39.9430    2.0900    3.3400   11.2000    0.2290    2.4840  -30.8300
  9917.0000    8.6340    8.6600  9917.0000    0.0700   72.6990   45.5120   36.5420    2.0300    3.2600   11.4800    0.2220    2.4800  -33.4400
  9917.5000    8.6310    8.6620  9917.5000    0.0870   73.0020   39.9640   35.3640    1.9900    3.1900   11.7600    0.2150    2.5100  -36.0400
  9918.0000    8.6290    8.6680  9918.0000    0.0800   73.3050   35.7190   35.9120    1.9500    3.1200   12.0500    0.2080    2.4870  -38.1400
  9918.5000    8.6260    8.6770  9918.5000    0.0700   73.6070   34.1280   37.8570    1.9200    3.0600   12.3400    0.2010    2.4680  -38.4300
  9919.0000    8.6230    8.6860  9919.0000    0.0640   73.6200   33.5910   39.8850    1.8900    3.0000   12.7200    0.1950    2.4550  -38.5900
  9919.5000    8.6200    8.6960  9919.5000    0.0650   73.2420   34.9770   39.1180    1.8600    2.9300   11.9000    0.1890    2.4480  -38.5200
  9920.0000    8.6180    8.7050  9920.0000    0.0690   72.8630   36.3290   37.6090    1.8400    2.8700   10.8600    0.1870    2.4540  -38.4600
  9920.5000    8.6150    8.7140  9920.5000    0.0650   72.6550   37.7320   36.0660    1.8300    2.8100    9.6800    0.1930    2.4510  -38.4000
  9921.0000    8.6120    8.7240  9921.0000    0.0580   72.9070   36.5890   34.6820    1.8200    2.7400   10.2900    0.1990    2.4570  -38.3600
  9921.5000    8.6120    8.7330  9921.5000    0.0610   72.9740   35.0590   36.7580    1.8000    2.7800   11.1600    0.2050    2.4670  -37.1800
  9922.0000    8.6210    8.7420  9922.0000    0.0730   72.6040   36.7440   41.6070    1.8200    2.8200   12.1600    0.2110    2.4700  -35.5300
  9922.5000    8.6310    8.7520  9922.5000    0.0690   72.2340   38.4770   46.9310    1.8600    2.8700   11.9200    0.2020    2.4620  -33.8600
  9923.0000    8.6400    8.7610  9923.0000    0.0570   71.9260   41.9700   51.6540    1.8900    2.9200   11.6800    0.1950    2.4600  -32.1900
  9923.5000    8.6490    8.7600  9923.5000    0.0570   71.7370   46.4860   54.6470    1.9200    2.9700   11.4100    0.1920    2.4530  -30.5200
  9924.0000    8.6590    8.7560  9924.0000    0.0760   72.4600   50.9830   54.2910    1.9600    3.0200   11.8700    0.1920    2.5040  -28.9600
  9924.5000    8.6680    8.7520  9924.5000    0.0750   73.4690   52.4420   54.1340    1.9900    3.0600   12.7200    0.1950    2.5170  -27.4800
  9925.0000    8.6780    8.7470  9925.0000    0.0880   74.4780   52.6650   55.6410    2.0300    3.0700   11.2800    0.2010    2.5090  -25.9900
  9925.5000    8.6870    8.7430  9925.5000    0.1010   74.6530   55.0770   55.1130    2.0500    3.0700    9.2100    0.2110    2.5020  -24.4900
  9926.0000    8.6960    8.7390  9926.0000    0.1160   74.2870   57.7060   49.4270    2.0100    3.0800    6.9600    0.2150    2.5380  -23.0300
  9926.5000    8.7060    8.7340  9926.5000    0.1130   74.4460   58.9800   43.7460    1.9900    3.0900    7.8700    0.2130    2.5490  -22.6100
  9927.0000    8.6980    8.7300  9927.0000    0.1050   75.2870   52.9250   40.7750    1.9700    2.9900    9.6000    0.2170    2.5370  -24.8400
  9927.5000    8.6750    8.7260  9927.5000    0.0860   76.1280   48.0120   43.2460    1.9500    2.8900   11.2000    0.2270    2.4940  -27.1100
  9928.0000    8.6520    8.7430  9928.0000    0.0720   76.8080   43.5670   46.4120    1.9300    2.8200    9.2900    0.2370    2.4480  -27.0300
  9928.5000    8.6290    8.7990  9928.5000    0.0680   77.2640   45.9900   50.9370    1.9000    2.8300    7.5600    0.2240    2.4280  -26.2300
  9929.0000    8.6060    8.9070  9929.0000    0.0910   76.4890   49.7620   59.0670    1.8800    2.8400    8.6900    0.2120    2.4430  -25.4200
  9929.5000    8.5840    9.0500  9929.5000    0.1180   76.0590   52.9720   69.5950    1.8900    2.8400   10.8000    0.2200    2.4670  -24.5900
  9930.0000    8.6010    9.1910  9930.0000    0.1010   77.5720   57.3920   80.0760    1.9000    2.8100   12.1600    0.2290    2.4520  -23.0000
  9930.5000    8.6740    9.2660  9930.5000    0.0880   79.4530   67.8520   87.4690    1.9100    2.7800    8.1000    0.2240    2.4660  -19.7500
  9931.0000    8.8450    9.0680  9931.0000    0.1310   78.3580   76.3850   76.8910    1.9200    2.7400    6.1300    0.2260    2.5080  -16.5400
  9931.5000    9.0280    8.8770  9931.5000    0.1640   76.4040   73.9850   57.9610    1.9300    2.9000    4.7400    0.2560    2.5420  -13.2800
  9932.0000    9.0900    8.6870  9932.0000    0.2040   74.3860   60.1530   38.7030    1.9400    3.1000    5.9300    0.2850    2.5520  -12.7100
  9932.5000    8.8550    8.6620  9932.5000    0.1350   72.3880   45.0300   27.5620    1.7500    3.3100    7.2900    0.3150    2.5050  -21.5500
  9933.0000    8.6650    8.6620  9933.0000    0.0710   72.9540   30.1200   22.9240    1.6400    3.4100    9.7500    0.3320    2.4460  -27.7800
  9933.5000    8.6100    8.6630  9933.5000    0.0860   73.3240   23.9700   22.5080    1.5300    2.9200   12.2000    0.2730    2.4720  -34.2100
  9934.0000    8.6100    8.6630  9934.0000    0.0940   73.0720   20.6730   22.1970    1.4400    2.6200   11.4200    0.2320    2.4830  -41.1700
  9934.5000    8.6100    8.6630  9934.5000    0.0870   72.8190   21.4430   21.8660    1.3400    2.3600   10.9500    0.2000    2.4440  -47.7800
  9935.0000    8.6100    8.6630  9935.0000    0.0890   72.8120   20.8160   21.1510    1.2500    2.1000   10.8300    0.1980    2.4490  -52.2300
  9935.5000    8.6100    8.6630  9935.5000    0.0690   73.0710   19.9930   20.1070    1.2000    1.9900   10.7200    0.1950    2.4270  -54.6900
  9936.0000    8.6100    8.6630  9936.0000    0.0650   73.3330   21.0760   19.0800    1.1500    1.8600   10.6000    0.1930    2.4300  -56.6600
  9936.5000    8.6100    8.6630  9936.5000    0.0680   73.5960   21.6130   18.6800    1.1000    1.8000   10.4800    0.1950    2.4200  -57.3600
  9937.0000    8.6100    8.6630  9937.0000    0.0600   73.8560   21.2000   19.4480    1.0500    1.7500   10.3700    0.1980    2.4270  -57.7800
  9937.5000    8.6100    8.6630  9937.5000    0.0450   74.0600   20.8040   19.8590    1.0200    1.7200   10.2500    0.2000    2.4120  -58.1900
  9938.0000    8.6100    8.6620  9938.0000    0.0490   73.8990   20.3970   19.7100    1.0000    1.7100   10.1400    0.1970    2.3930  -58.3900
  9938.5000    8.6100    8.6530  9938.5000    0.0560   73.7410   20.4550   19.6460    0.9800    1.7000   10.0300    0.1950    2.3980  -57.6100
  9939.0000    8.6100    8.6420  9939.0000    0.0440   73.5820   20.7780   20.6980    0.9900    1.6900    9.9200    0.1950    2.4040  -57.5800
  9939.5000    8.6100    8.6320  9939.5000    0.0310   73.0580   21.1140   21.7730    1.0100    1.6800    9.7600    0.1940    2.3920  -57.9700
  9940.0000    8.6100    8.6240  9940.0000    0.0250   72.5290   20.7810   22.8600    1.0300    1.6700   10.0200    0.1940    2.3810  -58.3700
  9940.5000    8.5990    8.6380  9940.5000    0.0390   72.0010   20.3400   22.9430    1.0600    1.7200   10.5000    0.1940    2.3950  -58.4600
  9941.0000    8.5890    8.6520  9941.0000    0.0590   71.4720   20.0030   22.5770    1.1000    1.7900   10.9900    0.1880    2.4250  -58.3800
  9941.5000    8.5790    8.6660  9941.5000    0.0600   71.8860   21.0140   22.3810    1.1500    1.8600   11.5100    0.1830    2.4350  -58.2900
  9942.0000    8.5720    8.6800  9942.0000    0.0550   72.4660   22.0160   22.7240    1.2000    1.9300   12.0500    0.1850    2.4310  -58.2100
  9942.5000    8.5970    8.6940  9942.5000    0.0470   73.0470   23.0110   23.0450    1.2500    2.0100   12.6100    0.1870    2.4180  -58.1200
  9943.0000    8.6220    8.7080  9943.0000    0.0590   73.6820   24.0080   24.1730    1.3100    2.0800   12.9600    0.1890    2.4310  -58.0300
  9943.5000    8.6470    8.7220  9943.5000    0.0470   72.9830   25.0120   26.0340    1.3000    2.1600   11.5200    0.1910    2.4200  -57.9700
