~Version Information Section
 VERS.      2.0         :CWLS LOG ASCII STANDARD - VERSION 2.0
 WRAP.      NO          :SINGLE LINE PER DEPTH STEP
 CREA.      8/24/2011 12:45:27
~Well Information Section
#MNEM.UNIT                      VALUE/NAME                 DESCRIPTION
#----.----     ----------------------------------   --------------------
 STRT .FT           1040.0000                         :START DEPTH
 STOP .FT          11320.0000                         :STOP DEPTH
 STEP .FT              0.5000                         :STEP VALUE
 NULL .             -999.0000                         :NULL VALUE
 SRVC .          SCH                                  :Service Company/Logging company
 DATE .          08/24/2011                           :LAS file Creation Date
 WELL .          PENOBSCOT B-41                       :Well Name
 COMP .          SHELL CANADARESOURCES LIMITED        :Company
 FLD  .          WILDCAT                              :Field
 STATE.          CALAGARY, ALBERTA                    :State
 COUNT.          CANADA                               :Country
 LOC  .          44'10'02; N LAT|60'06'32; W LO       :Location
 LATI .          0                                    :Latitude/Northing
 LONG .          0                                    :Longitude/Easting
 PDAT .          UNK                                  :Permanent Datum
 EPDAT.          0.0000                               :Elevation of Permanent Datum
 KB   .          99.0000                              :KB Elevation
 GL   .          -387.0000                            :GL Elevation
 RWS  .          0                                    :Def_Rw
 WST  .          0                                    :Def_Rwt
 ERT  .          0.0000                               :RT Elevation
 CNTY .          NOVA SCOTIA SHELF                    :County
~Curve Information Section
#MNEM  .UNIT         CURVE DESCRIPTION
#----  .----         -------------------------
 DEPTH .FT           :1 Depth
 CALD  .IN           :2 Caliper    Density Caliper
 CALS  .IN           :3 Caliper    DT Caliper
 DEPTH .FT           :4 Depth
 DRHO  .G/C3         :5 Drho       Delta Rho
 DT    .US/FT        :6 Sonic      Delta-T
 GRD   .GAPI         :7 GammaRay   Gamma Ray Density
 GRS   .GAPI         :8 GammaRay   Gamma Ray Sonic
 ILD   .OHMM         :9 DeepRes    Deep Induction Standard Processed Resistivity
 ILM   .OHMM         :10 MedRes    Medium Induction Standard Processed Resistivity
 LL8   .OHMM         :11 LL8       Shallow - Latero-Log 8
 NPHISS.V/V          :12 Neutron    Neutron Porosity – Ss Mtx
 RHOB  .G/C3         :13 Density    Bulk Density
 SP    .MV           :14 SP         Spontaneous Potential
~Parameter Information Section
#MNEM.UNIT                      VALUE                       DESCRIPTION
#----.----     ----------------------------------   --------------------
~A  DEPTH     CALD      CALS      DEPTH      DRHO       DT        GRD       GRS       ILD       ILM       LL8     NPHISS     RHOB       SP    
# ...
  7200.0000    9.1670    9.8030  7200.0000    0.0760   86.0890   55.0590   58.4780    2.8500    3.3800    4.8600    0.3080    2.3710  -15.7000
  7200.5000    9.1560    9.8090  7200.5000    0.0860   85.0990   56.9440   57.1890    2.4600    2.9800    6.9200    0.3000    2.4140  -18.2500
  7201.0000    9.1440    9.8150  7201.0000    0.0780   87.1780   59.6540   58.8700    2.1500    2.6300    6.4500    0.2950    2.4020  -16.5300
  7201.5000    9.1420    9.7560  7201.5000    0.0830   88.1680   63.4360   60.4410    1.8800    2.3200    2.8800    0.3200    2.4240  -14.8200
  7202.0000    9.1420    9.5560  7202.0000    0.0700   87.5230   63.4380   59.9900    1.6400    2.1000    2.9000    0.3380    2.4080  -13.0300
  7202.5000    9.1420    9.3590  7202.5000    0.0560   87.4530   58.5940   55.3610    1.4200    2.0200    2.9300    0.3560    2.3940  -15.0700
  7203.0000    9.1420    9.1630  7203.0000    0.0540   87.8830   52.4620   50.8170    1.3000    1.9400    3.2300    0.3680    2.3730  -19.3900
  7203.5000    9.1420    9.0530  7203.5000    0.0610   86.4230   49.0300   46.8150    1.1700    1.8600    4.7600    0.3530    2.3720  -25.9600
  7204.0000    9.1420    9.0890  7204.0000    0.0390   85.5530   48.0650   46.8450    1.0900    1.7000    4.7400    0.3430    2.3770  -32.4500
  7204.5000    9.1420    9.1230  7204.5000    0.0560   85.1980   50.2560   49.0950    1.0600    1.5400    4.7000    0.3290    2.3650  -37.4000
  7205.0000    9.1420    9.1920  7205.0000    0.0810   85.6520   53.7390   53.1780    1.0300    1.3700    4.6700    0.3330    2.4380  -39.0100
  7205.5000    9.1420    9.3090  7205.5000    0.0710   86.0890   57.5320   57.5620    1.0400    1.3800    6.1500    0.3400    2.3940  -38.0700
  7206.0000    9.1420    9.4260  7206.0000    0.0770   85.2990   61.8060   61.9500    1.0500    1.3800    5.4800    0.3350    2.4120  -36.0100
  7206.5000    9.1440    9.5430  7206.5000    0.0940   84.5320   66.8430   65.8620    1.0700    1.4300    4.8400    0.3310    2.4340  -32.1400
  7207.0000    9.1490    9.6580  7207.0000    0.1110   83.7660   72.2180   68.7190    1.1500    1.5300    4.8200    0.3330    2.4930  -28.2900
  7207.5000    9.1550    9.7630  7207.5000    0.1150   84.6590   70.5640   71.5590    1.2400    1.6500    4.2700    0.3430    2.4650  -24.4300
  7208.0000    9.1600    9.8310  7208.0000    0.0640   86.8810   63.7710   72.1420    1.3400    1.8400    3.5000    0.3640    2.4160  -21.5900
  7208.5000    9.1660    9.8160  7208.5000    0.0650   86.2790   54.9780   68.7020    1.4300    2.0300    3.3800    0.3850    2.3660  -20.0000
  7209.0000    9.1710    9.6100  7209.0000    0.0810   85.4140   46.1140   59.9630    1.4500    2.1700    3.0800    0.4070    2.3090  -22.2900
  7209.5000    9.1770    9.4070  7209.5000    0.0270   85.1240   37.2300   50.6360    1.4600    2.1900    2.7700    0.4280    2.2330  -28.8000
  7210.0000    9.1810    9.2090  7210.0000    0.0190   86.0840   30.9810   41.9460    1.2900    2.1500    3.4500    0.3890    2.2570  -37.3900
  7210.5000    9.1630    9.2110  7210.5000    0.0140   86.0650   29.7030   36.7510    1.1100    1.9400    4.9600    0.3480    2.2720  -45.0200
  7211.0000    9.1450    9.2230  7211.0000    0.0030   87.4170   30.6210   35.5560    0.9200    1.5500    6.0900    0.3080    2.2370  -51.5500
  7211.5000    9.1270    9.2340  7211.5000    0.0090   87.9370   31.0850   34.3010    0.7700    1.2500    5.1900    0.3090    2.2280  -57.5900
  7212.0000    9.1100    9.2450  7212.0000    0.0210   87.0800   30.3870   33.0510    0.6300    1.0300    4.6400    0.3100    2.2530  -60.2200
  7212.5000    9.1030    9.2560  7212.5000    0.0400   86.1960   30.9240   31.9570    0.5100    0.8500    4.2300    0.3050    2.2830  -62.7800
  7213.0000    9.1060    9.2580  7213.0000    0.0460   86.2640   32.4260   33.1670    0.4600    0.7500    4.0900    0.2990    2.3050  -64.0500
  7213.5000    9.1080    9.2390  7213.5000    0.0510   87.6450   33.9240   34.4180    0.4500    0.6900    3.9600    0.3060    2.3080  -65.2800
  7214.0000    9.1110    9.2220  7214.0000    0.0570   89.0330   34.8920   35.6570    0.4500    0.6600    3.8400    0.3110    2.3300  -65.3000
  7214.5000    9.1140    9.2040  7214.5000    0.0610   89.9570   34.8770   36.8970    0.4500    0.6500    3.2300    0.3130    2.3220  -63.4100
  7215.0000    9.1160    9.1860  7215.0000    0.0400   89.0050   34.8910   38.1830    0.5900    0.6900    2.6600    0.2930    2.3350  -59.1500
  7215.5000    9.1190    9.2050  7215.5000    0.0230   80.5140   35.5550   39.0150    0.7500    0.8300    2.2300    0.2580    2.3200  -54.0500
  7216.0000    9.1210    9.2480  7216.0000    0.0070   71.3130   37.2540   37.6480    0.9200    1.0600    2.5500    0.2220    2.3710  -48.9400
  7216.5000    9.1240    9.2920  7216.5000    0.0020   65.0810   38.9170   36.1600    1.0900    1.3500    4.4600    0.1870    2.4750  -44.0700
  7217.0000    9.1260    9.3060  7217.0000    0.0100   62.5250   40.7020   37.3520    1.3200    1.8500    9.0000    0.1620    2.5360  -40.9100
  7217.5000    9.1290    9.3120  7217.5000    0.0250   65.8740   45.5000   39.1240    1.6800    2.4400   18.4200    0.1470    2.5730  -37.6900
  7218.0000    9.1320    9.3180  7218.0000    0.0330   69.5820   51.6820   42.9040    2.1300    3.0800   16.3700    0.1630    2.5280  -34.1000
  7218.5000    9.1340    9.3280  7218.5000    0.0410   73.7270   57.7600   48.2850    2.6500    3.7900   13.8700    0.1940    2.5100  -29.9000
  7219.0000    9.1370    9.3620  7219.0000    0.0480   76.7870   63.8450   56.1710    3.1300    3.6200    9.8000    0.2260    2.5080  -25.7000
  7219.5000    9.1390    9.3960  7219.5000    0.0440   78.3140   69.2340   62.9720    3.6200    3.4800    6.4500    0.2540    2.5260  -21.6000
  7220.0000    9.1440    9.4310  7220.0000    0.0310   78.7670   71.4580   66.2820    3.0800    3.3000    4.4400    0.2730    2.5090  -17.5000
  7220.5000    9.1810    9.4070  7220.5000    0.0370   79.7370   65.7520   69.1780    2.6700    3.0300    4.0000    0.2820    2.4810  -18.1100
  7221.0000    9.2170    9.3570  7221.0000    0.0470   81.3130   61.7240   67.0250    2.2300    2.7800    3.8600    0.2800    2.4520  -19.5800
  7221.5000    9.2350    9.3060  7221.5000    0.0610   83.4780   61.2510   64.8310    1.8400    2.5700    4.6900    0.2860    2.4230  -21.7900
  7222.0000    9.2130    9.2560  7222.0000    0.0440   84.6940   61.0750   61.7420    1.5900    2.3700    5.7700    0.2950    2.3980  -24.1000
  7222.5000    9.1920    9.2050  7222.5000    0.0930   84.2770   56.7060   56.5030    1.4200    2.1900    5.1900    0.3040    2.4580  -26.4400
  7223.0000    9.1700    9.1550  7223.0000    0.0800   84.0330   51.0950   51.2850    1.2700    1.9900    4.3200    0.3120    2.4430  -29.8000
  7223.5000    9.1490    9.1310  7223.5000    0.0610   85.3160   46.6990   46.0770    1.1400    1.8100    3.8600    0.2970    2.4000  -34.3100
  7224.0000    9.1280    9.1610  7224.0000    0.0670   86.6070   44.7500   41.2620    1.0200    1.6500    4.3100    0.2840    2.3650  -43.6200
  7224.5000    9.1050    9.1890  7224.5000    0.0550   87.7690   42.6820   39.1750    0.9100    1.4100    4.6700    0.2750    2.3320  -52.5100
  7225.0000    9.1120    9.2740  7225.0000    0.0600   86.8270   44.1120   40.9350    0.8100    1.1900    4.2400    0.2740    2.3410  -54.6600
  7225.5000    9.1250    9.3960  7225.5000    0.0730   85.9360   46.2500   47.0370    0.7400    0.9800    3.7800    0.2640    2.3540  -53.6800
  7226.0000    9.1380    9.5190  7226.0000    0.0870   85.1030   52.2350   53.9960    0.6900    0.9000    3.1500    0.2540    2.3880  -48.1300
  7226.5000    9.1510    9.6420  7226.5000    0.1070   85.8470   60.3580   60.9610    0.7100    0.9500    2.6000    0.2480    2.4290  -40.8100
  7227.0000    9.1640    9.7660  7227.0000    0.1400   86.7620   67.7800   67.5080    0.7400    1.0100    2.3500    0.2640    2.4710  -33.2500
  7227.5000    9.1770    9.7100  7227.5000    0.1670   86.6930   68.6800   68.6480    0.7700    1.0800    2.4000    0.2950    2.5040  -25.7500
