~Version Information Section
 VERS.      2.0         :CWLS LOG ASCII STANDARD - VERSION 2.0
 WRAP.      NO          :SINGLE LINE PER DEPTH STEP
 CREA.      8/24/2011 12:45:27
~Well Information Section
#MNEM.UNIT                      VALUE/NAME                 DESCRIPTION
#----.----     ----------------------------------   --------------------
 STRT .FT           1040.0000                         :START DEPTH
 STOP .FT          11320.0000                         :STOP DEPTH
 STEP .FT              0.5000                         :STEP VALUE
 NULL .             -999.0000                         :NULL VALUE
 SRVC .          SCH                                  :Service Company/Logging company
 DATE .          08/24/2011                           :LAS file Creation Date
 WELL .          PENOBSCOT B-41                       :Well Name
 COMP .          SHELL CANADARESOURCES LIMITED        :Company
 FLD  .          WILDCAT                              :Field
 STATE.          CALAGARY, ALBERTA                    :State
 COUNT.          CANADA                               :Country
 LOC  .          44'10'02; N LAT|60'06'32; W LO       :Location
 LATI .          0                                    :Latitude/Northing
 LONG .          0                                    :Longitude/Easting
 PDAT .          UNK                                  :Permanent Datum
 EPDAT.          0.0000                               :Elevation of Permanent Datum
 KB   .          99.0000                              :KB Elevation
 GL   .          -387.0000                            :GL Elevation
 RWS  .          0                                    :Def_Rw
 WST  .          0                                    :Def_Rwt
 ERT  .          0.0000                               :RT Elevation
 CNTY .          NOVA SCOTIA SHELF                    :County
~Curve Information Section
#MNEM  .UNIT         CURVE DESCRIPTION
#----  .----         -------------------------
 DEPTH .FT           :1 Depth
 CALD  .IN           :2 Caliper    Density Caliper
 CALS  .IN           :3 Caliper    DT Caliper
 DEPTH .FT           :4 Depth
 DRHO  .G/C3         :5 Drho       Delta Rho
 DT    .US/FT        :6 Sonic      Delta-T
 GRD   .GAPI         :7 GammaRay   Gamma Ray Density
 GRS   .GAPI         :8 GammaRay   Gamma Ray Sonic
 ILD   .OHMM         :9 DeepRes    Deep Induction Standard Processed Resistivity
 ILM   .OHMM         :10 MedRes    Medium Induction Standard Processed Resistivity
 LL8   .OHMM         :11 LL8       Shallow - Latero-Log 8
 NPHISS.V/V          :12 Neutron    Neutron Porosity – Ss Mtx
 RHOB  .G/C3         :13 Density    Bulk Density
 SP    .MV           :14 SP         Spontaneous Potential
~Parameter Information Section
#MNEM.UNIT                      VALUE                       DESCRIPTION
#----.----     ----------------------------------   --------------------
~A  DEPTH     CALD      CALS      DEPTH      DRHO       DT        GRD       GRS       ILD       ILM       LL8     NPHISS     RHOB       SP    
# ...
  5828.0000   12.1770   12.1480  5828.0000    0.0880  103.3770   92.0870   90.8220    1.8800    1.9800    2.7400    0.4920    2.3920   19.0300
  5828.5000   12.3380   12.0990  5828.5000    0.0680  102.5460   88.6630   88.6090    1.9100    2.0000    2.6500    0.4870    2.3920   20.9000
  5829.0000   12.4270   12.0500  5829.0000    0.0720   99.0420   85.1960   85.6020    1.9500    2.0600    2.5900    0.4830    2.3980   22.3400
  5829.5000   12.4600   12.0000  5829.5000    0.0640   95.1030   84.3490   83.0460    1.9900    2.2100    2.9800    0.4630    2.3820   21.6000
  5830.0000   12.4870   12.0590  5830.0000    0.0730   92.4310   84.9370   84.7400    2.0300    2.3600    3.3500    0.4350    2.3940   20.9000
  5830.5000   12.4250   12.1540  5830.5000    0.0850   93.8630   82.6810   89.3550    2.0700    2.4600    3.8400    0.4080    2.4130   20.2000
  5831.0000   12.3610   12.2510  5831.0000    0.0960   96.4860   83.6360   94.1670    2.1100    2.4200    3.6400    0.4050    2.4340   19.4900
  5831.5000   12.2970   12.2820  5831.5000    0.1000   99.1090   86.0330   97.8250    2.1500    2.3900    3.3400    0.4020    2.4280   18.9200
  5832.0000   12.2600   12.2970  5832.0000    0.0910  100.3670   89.5940   97.9770    2.2000    2.3700    3.0600    0.3910    2.4200   20.3800
  5832.5000   12.3100   12.3120  5832.5000    0.0780   99.3950   92.8970   98.0600    2.2400    2.4200    2.9000    0.3980    2.4050   21.8600
  5833.0000   12.3590   12.3280  5833.0000    0.0850   98.4180   94.6140   98.6600    2.2600    2.4600    3.1300    0.4060    2.3960   23.3400
  5833.5000   12.4070   12.3070  5833.5000    0.0920   97.4420   96.2120   97.6920    2.1700    2.5000    3.3200    0.4040    2.4030   24.8400
  5834.0000   12.3350   12.2790  5834.0000    0.0820   97.6560   96.9210   95.1310    2.1100    2.4100    3.2500    0.4010    2.3860   26.2700
  5834.5000   12.2520   12.2500  5834.5000    0.0820   98.5320   95.3740   91.4860    2.0600    2.3300    3.2000    0.4040    2.3830   21.5000
  5835.0000   12.1670   12.2340  5835.0000    0.0710   99.4070   91.4180   90.1860    2.0000    2.2600    3.3200    0.4110    2.3550   16.0700
  5835.5000   12.1800   12.2540  5835.5000    0.0610  100.2830   86.5770   91.5750    1.9500    2.1800    3.5600    0.4180    2.3440   10.9700
  5836.0000   12.2700   12.2740  5836.0000    0.0510  101.1580   83.3780   91.9150    1.9000    2.1100    3.7700    0.4250    2.3390   14.2900
  5836.5000   12.3610   12.2830  5836.5000    0.0370  101.9130   82.7720   90.9950    1.8300    2.0800    3.1400    0.4320    2.3320   18.3800
  5837.0000   12.4560   12.2210  5837.0000    0.0530  102.2430   84.8710   88.1390    1.8400    2.0700    2.7500    0.4400    2.3560   22.2900
  5837.5000   12.3550   12.1580  5837.5000    0.0800  100.7760   86.6530   84.9720    1.8500    2.0700    2.6500    0.4360    2.3700   21.9100
  5838.0000   12.2090   12.1310  5838.0000    0.0940   96.0890   82.1490   81.7280    1.8600    2.1200    2.5900    0.4300    2.3500   17.2100
  5838.5000   12.0620   12.1340  5838.5000    0.1080   91.9780   77.3610   79.4470    1.8700    2.1800    2.6100    0.4240    2.3620   10.6200
  5839.0000   11.9310   12.1370  5839.0000    0.1160   89.9500   72.5960   78.9930    1.8300    2.1500    2.7700    0.4150    2.3840   -0.7100
  5839.5000   11.8850   12.1390  5839.5000    0.1070   91.3170   69.9660   78.5110    1.7900    2.0900    3.8400    0.4020    2.3990  -11.4000
  5840.0000   11.9650   12.1420  5840.0000    0.0870   93.6030   72.5730   78.0070    1.7600    2.0300    3.5200    0.3890    2.3880  -17.7400
  5840.5000   12.0440   12.1450  5840.5000    0.0660   95.0060   75.9270   79.2430    1.7200    1.9800    3.1700    0.3760    2.3750  -15.8600
  5841.0000   11.9300   12.1480  5841.0000    0.0570   95.2300   79.2660   81.4200    1.7200    1.9300    2.8600    0.3810    2.3560  -12.7700
  5841.5000   11.7880   12.1570  5841.5000    0.0710   95.7850   79.5130   83.6220    1.7200    1.8800    2.7100    0.3870    2.3860  -16.3000
  5842.0000   11.8670   12.1880  5842.0000    0.0750   96.5170   79.3820   85.6540    1.7200    1.8300    2.7100    0.3940    2.3880  -20.5200
  5842.5000   12.0340   12.2180  5842.5000    0.0520   97.2480   81.7550   86.1610    1.7200    1.8800    2.7100    0.4000    2.3800  -10.7900
  5843.0000   12.2010   12.2480  5843.0000    0.0590   97.9800   84.4230   86.4480    1.7200    1.9300    2.7000    0.4060    2.3870    0.5200
  5843.5000   12.1480   12.2180  5843.5000    0.0680   98.5110   87.1970   84.6920    1.5400    1.9900    2.7000    0.4010    2.4040    4.3700
  5844.0000   12.1000   12.1820  5844.0000    0.0550   98.6020   86.6300   79.2780    1.3800    1.9500    2.7000    0.3970    2.3890    2.9200
  5844.5000   12.1780   12.1470  5844.5000    0.0450   98.8660   85.0150   73.6920    1.2300    1.7400    2.6900    0.3980    2.3740   -1.6700
  5845.0000   12.1390   12.1110  5845.0000    0.0580  100.1510   80.3780   70.3350    1.0900    1.4700    2.4600    0.4020    2.3660  -16.2000
  5845.5000   12.0180   12.1100  5845.5000    0.0620  100.8390   75.5210   70.0800    0.9800    1.2400    2.0900    0.4060    2.3510  -30.6500
  5846.0000   11.9780   12.1100  5846.0000    0.0570  100.5050   70.6590   73.3490    0.9200    1.0400    1.7900    0.4100    2.3250  -44.9800
  5846.5000   11.9880   12.1100  5846.5000    0.0670   99.4780   65.7690   76.0340    0.8700    0.9800    1.4300    0.4040    2.3030  -52.0600
  5847.0000   11.9990   12.1320  5847.0000    0.0740   97.9560   63.2960   78.5870    0.8300    0.9900    1.5900    0.3970    2.2970  -48.5100
  5847.5000   12.0130   12.1690  5847.5000    0.0670   97.0790   65.9840   80.6120    0.8000    1.0100    1.8700    0.3910    2.3070  -43.2600
  5848.0000   12.0940   12.2050  5848.0000    0.0630   97.0460   68.8130   82.6380    0.8900    1.0400    2.3200    0.3850    2.3400  -35.3500
  5848.5000   12.1750   12.2420  5848.5000    0.0650   97.0120   71.6150   84.6680    0.9900    1.0600    2.2700    0.3780    2.3660  -26.2400
  5849.0000   12.2570   12.2790  5849.0000    0.0610   96.6280   74.1810   86.7040    1.1000    1.2500    2.1600    0.3740    2.3700  -11.9800
  5849.5000   12.3290   12.2900  5849.5000    0.0550   95.8430   76.2880   88.7140    1.2200    1.4600    2.3500    0.3900    2.3850    1.8800
  5850.0000   12.3150   12.2900  5850.0000    0.0590   95.0570   78.1760   89.7000    1.3500    1.7000    2.6500    0.3940    2.4000   12.9300
  5850.5000   12.3000   12.2900  5850.5000    0.0640   94.8120   78.8630   87.6750    1.5000    1.8900    3.0300    0.3960    2.4150   20.2200
  5851.0000   12.2850   12.2900  5851.0000    0.0690   95.7770   79.5110   85.7310    1.6600    2.0000    2.9800    0.3950    2.4200   19.5200
  5851.5000   12.2710   12.2900  5851.5000    0.0570   96.7420   80.6050   85.6580    1.8400    2.1200    2.9300    0.3860    2.4090   18.9700
  5852.0000   12.2730   12.2900  5852.0000    0.0430   98.0330   82.7140   87.3310    2.0500    2.1900    2.9000    0.3760    2.3910   18.5000
  5852.5000   12.2770   12.2900  5852.5000    0.0310   99.4380   84.8110   89.1480    2.1200    2.2300    2.9200    0.3710    2.3790   20.2300
  5853.0000   12.2810   12.2900  5853.0000    0.0430  100.8440   86.9170   90.9670    2.1400    2.2700    2.9500    0.3730    2.3720   22.1500
  5853.5000   12.2850   12.2900  5853.5000    0.0580  102.2500   89.0070   92.8580    2.1600    2.3000    2.9700    0.3760    2.3860   24.0700
  5854.0000   12.2900   12.2900  5854.0000    0.0680  102.8650   90.3280   91.1250    2.1800    2.2900    2.9900    0.3860    2.4000   25.9000
  5854.5000   12.2760   12.2900  5854.5000    0.0750  102.4790   87.1460   88.5710    2.2000    2.2700    3.0000    0.3990    2.4090   24.6000
  5855.0000   12.2580   12.2900  5855.0000    0.0910  101.3290   84.0100   86.4770    2.1900    2.2500    2.8700    0.4130    2.4170   24.5000
  5855.5000   12.2390   12.2900  5855.5000    0.0990   99.8230   80.8180   86.3820    2.1800    2.2400    2.7800    0.4200    2.4070   25.3100
