~Version Information Section
 VERS.      2.0         :CWLS LOG ASCII STANDARD - VERSION 2.0
 WRAP.      NO          :SINGLE LINE PER DEPTH STEP
 CREA.      8/24/2011 12:45:27
~Well Information Section
#MNEM.UNIT                      VALUE/NAME                 DESCRIPTION
#----.----     ----------------------------------   --------------------
 STRT .FT           1040.0000                         :START DEPTH
 STOP .FT          11320.0000                         :STOP DEPTH
 STEP .FT              0.5000                         :STEP VALUE
 NULL .             -999.0000                         :NULL VALUE
 SRVC .          SCH                                  :Service Company/Logging company
 DATE .          08/24/2011                           :LAS file Creation Date
 WELL .          PENOBSCOT B-41                       :Well Name
 COMP .          SHELL CANADARESOURCES LIMITED        :Company
 FLD  .          WILDCAT                              :Field
 STATE.          CALAGARY, ALBERTA                    :State
 COUNT.          CANADA                               :Country
 LOC  .          44'10'02; N LAT|60'06'32; W LO       :Location
 LATI .          0                                    :Latitude/Northing
 LONG .          0                                    :Longitude/Easting
 PDAT .          UNK                                  :Permanent Datum
 EPDAT.          0.0000                               :Elevation of Permanent Datum
 KB   .          99.0000                              :KB Elevation
 GL   .          -387.0000                            :GL Elevation
 RWS  .          0                                    :Def_Rw
 WST  .          0                                    :Def_Rwt
 ERT  .          0.0000                               :RT Elevation
 CNTY .          NOVA SCOTIA SHELF                    :County
~Curve Information Section
#MNEM  .UNIT         CURVE DESCRIPTION
#----  .----         -------------------------
 DEPTH .FT           :1 Depth
 CALD  .IN           :2 Caliper    Density Caliper
 CALS  .IN           :3 Caliper    DT Caliper
 DEPTH .FT           :4 Depth
 DRHO  .G/C3         :5 Drho       Delta Rho
 DT    .US/FT        :6 Sonic      Delta-T
 GRD   .GAPI         :7 GammaRay   Gamma Ray Density
 GRS   .GAPI         :8 GammaRay   Gamma Ray Sonic
 ILD   .OHMM         :9 DeepRes    Deep Induction Standard Processed Resistivity
 ILM   .OHMM         :10 MedRes    Medium Induction Standard Processed Resistivity
 LL8   .OHMM         :11 LL8       Shallow - Latero-Log 8
 NPHISS.V/V          :12 Neutron    Neutron Porosity – Ss Mtx
 RHOB  .G/C3         :13 Density    Bulk Density
 SP    .MV           :14 SP         Spontaneous Potential
~Parameter Information Section
#MNEM.UNIT                      VALUE                       DESCRIPTION
#----.----     ----------------------------------   --------------------
~A  DEPTH     CALD      CALS      DEPTH      DRHO       DT        GRD       GRS       ILD       ILM       LL8     NPHISS     RHOB       SP    
# ...
 11260.0000    8.8860 -999.0000 11260.0000    0.0060 -999.0000   22.1690 -999.0000  118.2600  141.1500  162.8100    0.0300    2.7340   32.5200
 11260.5000    8.8910 -999.0000 11260.5000    0.0050 -999.0000   20.4680 -999.0000  334.4900  174.0700  196.7500    0.0280    2.7290   32.1000
 11261.0000    8.8950 -999.0000 11261.0000    0.0100 -999.0000   21.5150 -999.0000  915.6800  214.6600  237.7700    0.0250    2.7340   31.6800
 11261.5000    8.8990 -999.0000 11261.5000    0.0170 -999.0000   23.0310 -999.0000  425.0200  279.1700  269.1500    0.0230    2.7390   31.2600
 11262.0000    8.9030 -999.0000 11262.0000    0.0240 -999.0000   23.9900 -999.0000  347.2400  246.8600  192.9000    0.0260    2.7450   30.9000
 11262.5000    8.9070 -999.0000 11262.5000    0.0170 -999.0000   24.6660 -999.0000  284.0000  200.9200  150.5700    0.0290    2.7380   30.9500
 11263.0000    8.9120 -999.0000 11263.0000    0.0050 -999.0000   25.3470 -999.0000  233.2500  209.2800  117.3100    0.0320    2.7270   31.0100
 11263.5000    8.9180 -999.0000 11263.5000   -0.0010 -999.0000   25.8750 -999.0000  204.2500  220.9700   90.8500    0.0340    2.7190   31.0700
 11264.0000    8.9250 -999.0000 11264.0000    0.0220 -999.0000   24.4380 -999.0000  182.6600  238.9300  114.5500    0.0370    2.7360   31.1200
 11264.5000    8.9310 -999.0000 11264.5000    0.0230 -999.0000   23.0090 -999.0000  163.3600  205.7400  146.6600    0.0400    2.7570   31.1800
 11265.0000    8.9380 -999.0000 11265.0000    0.0180 -999.0000   21.9510 -999.0000  146.0900  156.5000  198.8100    0.0380    2.7440   31.7700
 11265.5000    8.9440 -999.0000 11265.5000    0.0130 -999.0000   23.8130 -999.0000  127.3000  119.3400  160.2700    0.0350    2.7500   32.4100
 11266.0000    8.9490 -999.0000 11266.0000    0.0160 -999.0000   25.7330 -999.0000  138.6000  105.9800  120.4900    0.0350    2.7310   33.0500
 11266.5000    8.9360 -999.0000 11266.5000    0.0270 -999.0000   27.6460 -999.0000  154.9300  119.1000   94.9800    0.0360    2.7150   33.7000
 11267.0000    8.9230 -999.0000 11267.0000    0.0290 -999.0000   26.5910 -999.0000  173.3200  138.7300  129.4300    0.0380    2.7210   34.3400
 11267.5000    8.9100 -999.0000 11267.5000    0.0180 -999.0000   25.3170 -999.0000  193.8400  161.6000  168.7900    0.0370    2.7160   34.9800
 11268.0000    8.8970 -999.0000 11268.0000    0.0150 -999.0000   24.6600 -999.0000  216.7900  188.2400  220.1100    0.0340    2.7290   35.2600
 11268.5000    8.8840 -999.0000 11268.5000    0.0130 -999.0000   25.3690 -999.0000  232.5400  219.2500  274.1200    0.0310    2.7200   35.4900
 11269.0000    8.8710 -999.0000 11269.0000    0.0050 -999.0000   26.1220 -999.0000  201.5800  264.1200  242.5400    0.0270    2.7310   35.7200
 11269.5000    8.8580 -999.0000 11269.5000    0.0020 -999.0000   27.2050 -999.0000  177.4700  246.1300  218.5300    0.0300    2.7360   35.9500
 11270.0000    8.8380 -999.0000 11270.0000    0.0080 -999.0000   28.2970 -999.0000  140.2500  224.6100  196.8900    0.0320    2.7170   36.1900
 11270.5000    8.8060 -999.0000 11270.5000    0.0080 -999.0000   29.3830 -999.0000  110.8300  196.8000  155.8900    0.0340    2.7030   36.4200
 11271.0000    8.7740 -999.0000 11271.0000    0.0060 -999.0000   31.0140 -999.0000   87.5800  143.6000  112.4500    0.0360    2.7120   36.7500
 11271.5000    8.7410 -999.0000 11271.5000    0.0120 -999.0000   33.0290 -999.0000   69.2100  104.7800   81.1100    0.0410    2.7120   37.1900
 11272.0000    8.7090 -999.0000 11272.0000    0.0130 -999.0000   34.9560 -999.0000   54.6900   76.4600   58.5100    0.0450    2.7090   37.6300
 11272.5000    8.6760 -999.0000 11272.5000    0.0110 -999.0000   36.0480 -999.0000   47.3600   55.7900   44.9000    0.0500    2.7190   37.9800
 11273.0000    8.6700 -999.0000 11273.0000    0.0100 -999.0000   35.2470 -999.0000   43.7100   40.6000   52.2900    0.0550    2.7260   37.6700
 11273.5000    8.6700 -999.0000 11273.5000    0.0120 -999.0000   34.4630 -999.0000   40.3000   37.8600   57.9300    0.0590    2.7050   37.3400
 11274.0000    8.6700 -999.0000 11274.0000    0.0210 -999.0000   35.1180 -999.0000   38.4600   35.4100   50.5600    0.0640    2.6960   37.0200
 11274.5000    8.6700 -999.0000 11274.5000    0.0280 -999.0000   34.4790 -999.0000   45.3700   39.6800   45.0200    0.0630    2.7120   36.7000
 11275.0000    8.6700 -999.0000 11275.0000    0.0210 -999.0000   33.4350 -999.0000   51.1500   44.5400   40.2900    0.0630    2.7210   36.0900
 11275.5000    8.6700 -999.0000 11275.5000    0.0120 -999.0000   39.6330 -999.0000   57.6300   49.9900   59.8700    0.0620    2.7090   35.2000
 11276.0000    8.6700 -999.0000 11276.0000    0.0040 -999.0000   46.4990 -999.0000   64.9200   56.0900   89.2500    0.0570    2.6970   34.3100
 11276.5000    8.6700 -999.0000 11276.5000    0.0060 -999.0000 -999.0000 -999.0000   73.1600   62.9300  122.6700    0.0510    2.7140   33.4200
 11277.0000    8.6690 -999.0000 11277.0000    0.0100 -999.0000 -999.0000 -999.0000   82.4100   70.6100  104.0600    0.0460    2.7200   32.8600
 11277.5000    8.6660 -999.0000 11277.5000    0.0140 -999.0000 -999.0000 -999.0000   94.8700   75.5800  107.0000    0.0460    2.7420   32.6500
 11278.0000    8.6620 -999.0000 11278.0000    0.0180 -999.0000 -999.0000 -999.0000   83.4400   71.5900  112.0500    0.0480    2.7250   32.4500
 11278.5000    8.6590 -999.0000 11278.5000    0.0180 -999.0000 -999.0000 -999.0000   71.6500   75.5000  119.3000    0.0490    2.7190   31.5300
 11279.0000    8.6560 -999.0000 11279.0000    0.0060 -999.0000 -999.0000 -999.0000   85.3100   82.5500  111.6800    0.0510    2.7220   30.3300
 11279.5000    8.6520 -999.0000 11279.5000    0.0010 -999.0000 -999.0000 -999.0000  104.8700   93.2600   99.9900    0.0530    2.7160   29.1200
 11280.0000    8.6500 -999.0000 11280.0000    0.0010 -999.0000 -999.0000 -999.0000   87.0100   89.6300   89.6100    0.0540    2.7190   28.2000
 11280.5000 -999.0000 -999.0000 11280.5000 -999.0000 -999.0000 -999.0000 -999.0000   69.1900   84.0700   80.3100 -999.0000 -999.0000   27.5800
 11281.0000 -999.0000 -999.0000 11281.0000 -999.0000 -999.0000 -999.0000 -999.0000   60.7500   76.9700   71.9800 -999.0000 -999.0000   26.9600
 11281.5000 -999.0000 -999.0000 11281.5000 -999.0000 -999.0000 -999.0000 -999.0000   66.7300   80.9300   64.5100 -999.0000 -999.0000   26.4000
 11282.0000 -999.0000 -999.0000 11282.0000 -999.0000 -999.0000 -999.0000 -999.0000   72.1800   87.6700   57.9900 -999.0000 -999.0000   21.3300
 11282.5000 -999.0000 -999.0000 11282.5000 -999.0000 -999.0000 -999.0000 -999.0000   81.3100   94.9900   76.0000 -999.0000 -999.0000   13.7100
 11283.0000 -999.0000 -999.0000 11283.0000 -999.0000 -999.0000 -999.0000 -999.0000   91.5800  102.9100   98.8900 -999.0000 -999.0000   20.5100
 11283.5000 -999.0000 -999.0000 11283.5000 -999.0000 -999.0000 -999.0000 -999.0000  105.0700  111.4900  128.6700 -999.0000 -999.0000   28.0400
 11284.0000 -999.0000 -999.0000 11284.0000 -999.0000 -999.0000 -999.0000 -999.0000  128.0200  120.7900  165.5200 -999.0000 -999.0000   25.8200
 11284.5000 -999.0000 -999.0000 11284.5000 -999.0000 -999.0000 -999.0000 -999.0000  155.9800  130.8700  194.1300 -999.0000 -999.0000   24.2900
 11285.0000 -999.0000 -999.0000 11285.0000 -999.0000 -999.0000 -999.0000 -999.0000  190.0500  155.3600  457.7400 -999.0000 -999.0000   24.1700
 11285.5000 -999.0000 -999.0000 11285.5000 -999.0000 -999.0000 -999.0000 -999.0000  212.2400  207.1800 1223.9000 -999.0000 -999.0000   24.0200
 11286.0000 -999.0000 -999.0000 11286.0000 -999.0000 -999.0000 -999.0000 -999.0000  121.5500  276.6500  219.6100 -999.0000 -999.0000   23.8800
 11286.5000 -999.0000 -999.0000 11286.5000 -999.0000 -999.0000 -999.0000 -999.0000  136.5100  369.6200   96.7400 -999.0000 -999.0000   23.7300
 11287.0000 -999.0000 -999.0000 11287.0000 -999.0000 -999.0000 -999.0000 -999.0000  176.9000  432.7400   82.8100 -999.0000 -999.0000   23.5900
 11287.5000 -999.0000 -999.0000 11287.5000 -999.0000 -999.0000 -999.0000 -999.0000  248.7900  395.0600 1171.0601 -999.0000 -999.0000   23.4400
