~Version Information Section
 VERS.      2.0         :CWLS LOG ASCII STANDARD - VERSION 2.0
 WRAP.      NO          :SINGLE LINE PER DEPTH STEP
 CREA.      8/24/2011 12:45:27
~Well Information Section
#MNEM.UNIT                      VALUE/NAME                 DESCRIPTION
#----.----     ----------------------------------   --------------------
 STRT .FT           1040.0000                         :START DEPTH
 STOP .FT          11320.0000                         :STOP DEPTH
 STEP .FT              0.5000                         :STEP VALUE
 NULL .             -999.0000                         :NULL VALUE
 SRVC .          SCH                                  :Service Company/Logging company
 DATE .          08/24/2011                           :LAS file Creation Date
 WELL .          PENOBSCOT B-41                       :Well Name
 COMP .          SHELL CANADARESOURCES LIMITED        :Company
 FLD  .          WILDCAT                              :Field
 STATE.          CALAGARY, ALBERTA                    :State
 COUNT.          CANADA                               :Country
 LOC  .          44'10'02; N LAT|60'06'32; W LO       :Location
 LATI .          0                                    :Latitude/Northing
 LONG .          0                                    :Longitude/Easting
 PDAT .          UNK                                  :Permanent Datum
 EPDAT.          0.0000                               :Elevation of Permanent Datum
 KB   .          99.0000                              :KB Elevation
 GL   .          -387.0000                            :GL Elevation
 RWS  .          0                                    :Def_Rw
 WST  .          0                                    :Def_Rwt
 ERT  .          0.0000                               :RT Elevation
 CNTY .          NOVA SCOTIA SHELF                    :County
~Curve Information Section
#MNEM  .UNIT         CURVE DESCRIPTION
#----  .----         -------------------------
 DEPTH .FT           :1 Depth
 CALD  .IN           :2 Caliper    Density Caliper
 CALS  .IN           :3 Caliper    DT Caliper
 DEPTH .FT           :4 Depth
 DRHO  .G/C3         :5 Drho       Delta Rho
 DT    .US/FT        :6 Sonic      Delta-T
 GRD   .GAPI         :7 GammaRay   Gamma Ray Density
 GRS   .GAPI         :8 GammaRay   Gamma Ray Sonic
 ILD   .OHMM         :9 DeepRes    Deep Induction Standard Processed Resistivity
 ILM   .OHMM         :10 MedRes    Medium Induction Standard Processed Resistivity
 LL8   .OHMM         :11 LL8       Shallow - Latero-Log 8
 NPHISS.V/V          :12 Neutron    Neutron Porosity – Ss Mtx
 RHOB  .G/C3         :13 Density    Bulk Density
 SP    .MV           :14 SP         Spontaneous Potential
~Parameter Information Section
#MNEM.UNIT                      VALUE                       DESCRIPTION
#----.----     ----------------------------------   --------------------
~A  DEPTH     CALD      CALS      DEPTH      DRHO       DT        GRD       GRS       ILD       ILM       LL8     NPHISS     RHOB       SP    
# ...
 10588.0000    9.5100    9.5030 10588.0000    0.0120   77.0630   61.9200   65.3500    4.1900    4.6500    5.0300    0.2520    2.5110   10.1900
 10588.5000    9.5100    9.5010 10588.5000    0.0090   76.2490   65.8150   67.3560    4.0900    4.6900    5.7000    0.2600    2.5250   13.8800
 10589.0000    9.5020    9.4940 10589.0000    0.0190   76.1280   66.7420   64.2740    3.9900    4.7400    6.4600    0.2680    2.5270   17.6000
 10589.5000    9.4930    9.4860 10589.5000    0.0350   76.1690   66.9880   61.0420    3.9400    4.6100    7.3200    0.2740    2.5130   16.7800
 10590.0000    9.4830    9.4790 10590.0000    0.0240   74.2180   65.4560   57.8610    3.9200    4.4100    7.8400    0.2650    2.4940   15.1600
 10590.5000    9.4730    9.4710 10590.5000    0.0180   72.4880   63.0260   57.0190    3.9000    4.2200    5.5000    0.2410    2.4850   13.5400
 10591.0000    9.4640    9.4640 10591.0000    0.0450   73.3350   60.5940   60.5280    3.8800    4.0200    5.3900    0.2110    2.5420   11.9300
 10591.5000    9.4540    9.4570 10591.5000    0.0400   73.2360   58.4460   66.0030    3.9900    4.1800    5.4600    0.1890    2.5340   10.3000
 10592.0000    9.4450    9.4490 10592.0000    0.0590   72.7320   60.0570   70.4770    4.0900    4.3600    5.5900    0.1800    2.5550   10.5200
 10592.5000    9.4350    9.4420 10592.5000    0.0430   72.2290   65.5290   74.1700    4.2000    4.5800    6.0300    0.1860    2.5560   13.2000
 10593.0000    9.4220    9.4350 10593.0000    0.0260   71.7250   71.3420   78.7130    4.3300    5.0200    6.5400    0.1930    2.5520   17.5100
 10593.5000    9.4070    9.4270 10593.5000    0.0220   71.4420   77.1510   84.2690    4.6200    5.5100    7.2200    0.2000    2.5720   21.9000
 10594.0000    9.3920    9.4190 10594.0000    0.0280   71.5860   82.9770   86.7350    4.9300    6.0400    8.7100    0.2070    2.5960   24.4600
 10594.5000    9.3770    9.4020 10594.5000    0.0280   71.7300   87.1600   88.4650    5.2600    6.4800   10.9900    0.2060    2.6040   26.5900
 10595.0000    9.3660    9.3850 10595.0000    0.0280   71.9690   90.1620   90.3520    5.6800    6.8200   10.3300    0.2050    2.6200   28.3500
 10595.5000    9.3570    9.3680 10595.5000    0.0300   72.2780   90.4380   92.3490    6.1600    7.1700    9.2600    0.2040    2.6210   29.4700
 10596.0000    9.3490    9.3510 10596.0000    0.0420   72.5880   91.1580   90.9530    6.9000    7.7000    8.1300    0.2070    2.6380   30.5800
 10596.5000    9.3410    9.3340 10596.5000    0.0450   72.8980   93.8530   90.3300    6.7400    7.5200    8.6700    0.2090    2.6250   31.2600
 10597.0000    9.3330    9.3180 10597.0000    0.0270   73.2080   95.8980   89.8420    6.5000    7.2300    9.3800    0.2200    2.6160   31.9200
 10597.5000    9.3200    9.3010 10597.5000    0.0110   73.5180   95.7420   86.2320    6.1800    6.9600   10.1300    0.2320    2.5930   32.6100
 10598.0000    9.3050    9.2840 10598.0000    0.0200   73.8280   90.6520   82.5150    6.2100    6.7000    9.3200    0.2360    2.5750   31.6300
 10598.5000    9.2900    9.2670 10598.5000    0.0360   74.1370   82.7940   81.2980    6.2600    6.4100    8.6100    0.2390    2.5890   30.4000
 10599.0000    9.2750    9.2540 10599.0000    0.0420   73.8680   77.9250   80.9140    6.3000    6.5900    7.9500    0.2420    2.5940   29.1600
 10599.5000    9.2600    9.2380 10599.5000    0.0260   73.5080   79.1640   79.3170    6.3500    6.8100    7.6300    0.2360    2.5790   28.9100
 10600.0000    9.2450    9.2220 10600.0000    0.0170   73.1840   81.0230   80.6200    6.4000    7.0300    8.9000    0.2280    2.5680   29.7200
 10600.5000    9.2290    9.2070 10600.5000    0.0140   73.1420   82.6690   82.2590    6.4900    7.2600    9.8700    0.2200    2.5610   30.2100
 10601.0000    9.2130    9.1910 10601.0000    0.0210   73.1030   83.6760   83.8910    6.6100    7.5000   10.6000    0.2130    2.5780   29.8700
 10601.5000    9.2210    9.1750 10601.5000    0.0420   73.0640   83.3390   82.4860    6.7300    7.7500   10.3300    0.2110    2.5940   29.5500
 10602.0000    9.2350    9.1590 10602.0000    0.0560   73.0250   81.8420   80.8460    6.8500    8.0000   10.1300    0.2140    2.6130   29.2200
 10602.5000    9.2490    9.1440 10602.5000    0.0440   72.9850   80.2310   77.2510    6.9700    8.2600   10.5800    0.2170    2.6020   28.9100
 10603.0000    9.2340    9.1280 10603.0000    0.0340   71.4020   76.2530   70.5710    7.0900    8.5400   11.0800    0.2200    2.5810   27.5700
 10603.5000    9.2170    9.1120 10603.5000    0.0250   69.7550   72.0780   62.7500    7.2200    8.8200   11.4000    0.2230    2.5640   25.8000
 10604.0000    9.2000    9.0960 10604.0000    0.0250   69.0860   67.9510   54.9210    6.6200    8.9900   11.3400    0.2210    2.5710   21.3200
 10604.5000    9.1830    9.0800 10604.5000    0.0310   69.6940   61.1890   47.3100    5.9300    8.3800   11.3000    0.2170    2.5800   16.6300
 10605.0000    9.1660    9.0630 10605.0000    0.0460   70.7390   53.8710   45.7930    5.3100    7.5800   12.2600    0.2080    2.5830   11.9600
 10605.5000    9.1510    9.1010 10605.5000    0.0340   72.0390   48.6520   46.8730    4.7600    6.4000   12.8300    0.1940    2.5640    6.8100
 10606.0000    9.1550    9.1500 10606.0000    0.0220   73.2840   47.0250   49.7640    4.4800    5.4000   10.9700    0.1870    2.5360    1.3700
 10606.5000    9.1610    9.1980 10606.5000    0.0360   72.0830   47.7010   53.3410    4.3500    4.8600    9.8100    0.1980    2.5440   -3.7900
 10607.0000    9.1660    9.2460 10607.0000    0.0420   70.5280   49.2660   56.9150    4.2200    4.6400    8.7800    0.2070    2.5160   -4.4200
 10607.5000    9.1790    9.2820 10607.5000    0.0290   68.7660   54.2850   57.8050    4.0900    4.4500    7.8600    0.2110    2.5310   -2.1700
 10608.0000    9.2170    9.2720 10608.0000    0.0290   67.0150   58.7680   55.5290    4.0200    4.7200    7.4200    0.1930    2.5720    4.0200
 10608.5000    9.2540    9.2630 10608.5000    0.0280   67.6150   61.3890   56.8690    4.4100    4.9800    8.4000    0.1840    2.5900   10.2100
 10609.0000    9.2910    9.2540 10609.0000    0.0090   68.8540   62.6550   64.0070    4.7000    5.2600    9.1500    0.1830    2.5760   14.2300
 10609.5000    9.3290    9.2450 10609.5000    0.0170   70.9180   64.0750   73.0020    5.0000    5.5600    9.6700    0.1820    2.5640   15.8700
 10610.0000    9.3550    9.2360 10610.0000    0.0330   72.8130   70.7580   81.9390    5.3200    5.8700    8.0500    0.1830    2.5620   16.9200
 10610.5000    9.3830    9.2280 10610.5000    0.0750   74.3740   77.9820   89.4560    5.6600    6.2000    6.7700    0.2010    2.5740   19.5600
 10611.0000    9.4080    9.2210 10611.0000    0.1170   75.8080   84.4080   92.8260    5.7900    6.5400    7.7700    0.2220    2.5960   22.9300
 10611.5000    9.3620    9.1910 10611.5000    0.1040   76.3770   88.1500   93.7560    5.8500    6.7700    9.3200    0.2520    2.6090   26.2100
 10612.0000    9.3100    9.1580 10612.0000    0.0680   75.0480   86.3530   94.1470    5.9000    6.3500   11.2000    0.2810    2.5350   28.7400
 10612.5000    9.3500    9.1260 10612.5000    0.0950   73.7210   87.3230   91.0990    5.9600    6.4200    8.8600    0.2990    2.5170   29.2800
 10613.0000    9.4530    9.0940 10613.0000    0.1380   72.0600   86.8140   86.4140    6.0200    6.5400    7.3600    0.2990    2.5760   29.8800
 10613.5000    9.3180    9.0810 10613.5000    0.1540   70.9890   85.3270   83.6590    6.0800    6.6500    7.7400    0.3010    2.5990   29.8800
 10614.0000    9.1050    9.0780 10614.0000    0.0350   70.6350   83.7820   80.9990    6.1400    6.7700    8.0800    0.3030    2.5210   29.7200
 10614.5000    9.1060    9.0760 10614.5000    0.0310   69.9420   81.1980   78.2760    6.2000    6.8900    8.4300    0.2630    2.5830   30.1700
 10615.0000    9.1030    9.0740 10615.0000    0.0290   70.4480   78.6410   77.9470    6.3400    7.0200    8.7900    0.2320    2.6090   30.7800
 10615.5000    9.1000    9.0720 10615.5000    0.0370   71.5920   78.0960   82.8570    6.5800    7.1400    9.1700    0.2220    2.6410   30.9800
