~Version Information Section
 VERS.      2.0         :CWLS LOG ASCII STANDARD - VERSION 2.0
 WRAP.      NO          :SINGLE LINE PER DEPTH STEP
 CREA.      8/24/2011 12:45:27
~Well Information Section
#MNEM.UNIT                      VALUE/NAME                 DESCRIPTION
#----.----     ----------------------------------   --------------------
 STRT .FT           1040.0000                         :START DEPTH
 STOP .FT          11320.0000                         :STOP DEPTH
 STEP .FT              0.5000                         :STEP VALUE
 NULL .             -999.0000                         :NULL VALUE
 SRVC .          SCH                                  :Service Company/Logging company
 DATE .          08/24/2011                           :LAS file Creation Date
 WELL .          PENOBSCOT B-41                       :Well Name
 COMP .          SHELL CANADARESOURCES LIMITED        :Company
 FLD  .          WILDCAT                              :Field
 STATE.          CALAGARY, ALBERTA                    :State
 COUNT.          CANADA                               :Country
 LOC  .          44'10'02; N LAT|60'06'32; W LO       :Location
 LATI .          0                                    :Latitude/Northing
 LONG .          0                                    :Longitude/Easting
 PDAT .          UNK                                  :Permanent Datum
 EPDAT.          0.0000                               :Elevation of Permanent Datum
 KB   .          99.0000                              :KB Elevation
 GL   .          -387.0000                            :GL Elevation
 RWS  .          0                                    :Def_Rw
 WST  .          0                                    :Def_Rwt
 ERT  .          0.0000                               :RT Elevation
 CNTY .          NOVA SCOTIA SHELF                    :County
~Curve Information Section
#MNEM  .UNIT         CURVE DESCRIPTION
#----  .----         -------------------------
 DEPTH .FT           :1 Depth
 CALD  .IN           :2 Caliper    Density Caliper
 CALS  .IN           :3 Caliper    DT Caliper
 DEPTH .FT           :4 Depth
 DRHO  .G/C3         :5 Drho       Delta Rho
 DT    .US/FT        :6 Sonic      Delta-T
 GRD   .GAPI         :7 GammaRay   Gamma Ray Density
 GRS   .GAPI         :8 GammaRay   Gamma Ray Sonic
 ILD   .OHMM         :9 DeepRes    Deep Induction Standard Processed Resistivity
 ILM   .OHMM         :10 MedRes    Medium Induction Standard Processed Resistivity
 LL8   .OHMM         :11 LL8       Shallow - Latero-Log 8
 NPHISS.V/V          :12 Neutron    Neutron Porosity – Ss Mtx
 RHOB  .G/C3         :13 Density    Bulk Density
 SP    .MV           :14 SP         Spontaneous Potential
~Parameter Information Section
#MNEM.UNIT                      VALUE                       DESCRIPTION
#----.----     ----------------------------------   --------------------
~A  DEPTH     CALD      CALS      DEPTH      DRHO       DT        GRD       GRS       ILD       ILM       LL8     NPHISS     RHOB       SP    
# ...
  4484.0000   12.3270   12.5040  4484.0000    0.1130  110.5850   92.7650   85.2140    1.8400    2.0000    2.5300    0.4930    2.3020  -16.4200
  4484.5000   12.6050   12.5100  4484.5000    0.1090  109.0690   91.2520   86.1000    1.8800    2.0200    2.5500    0.4650    2.3110  -15.1600
  4485.0000   12.5580   12.5160  4485.0000    0.1430  108.7960   91.9560   88.6890    1.9000    2.0500    2.5800    0.4490    2.3240  -13.6300
  4485.5000   12.4730   12.5220  4485.5000    0.1530  109.6450   93.0290   91.2830    1.8500    2.0400    2.6100    0.4420    2.3050  -14.0700
  4486.0000   12.3870   12.5280  4486.0000    0.1430  111.4290   92.4430   91.9540    1.8200    2.0300    2.6400    0.4400    2.2960  -15.1200
  4486.5000   12.3180   12.5590  4486.5000    0.1520  113.8330   91.6240   91.5200    1.7800    2.0200    2.5500    0.4510    2.3380  -16.2400
  4487.0000   12.4540   12.6030  4487.0000    0.1450  116.2380   90.7970   91.0640    1.7500    1.9800    2.4300    0.4650    2.3690  -16.0100
  4487.5000   12.5400   12.5700  4487.5000    0.2010  118.6420   89.9770   90.6030    1.7200    1.8900    2.3200    0.4800    2.4090  -15.3900
  4488.0000   12.4920   12.4320  4488.0000    0.1620  120.5060   89.2890   90.4520    1.6800    1.7800    2.2100    0.4880    2.3870  -14.7700
  4488.5000   12.4770   12.2950  4488.5000    0.1090  118.7890   89.8740   90.4580    1.6500    1.7900    2.1100    0.4930    2.3450  -13.3600
  4489.0000   12.4900   12.1710  4489.0000    0.0960  112.6760   89.4440   90.5070    1.6200    1.8000    2.0100    0.4980    2.3260  -11.2700
  4489.5000   12.5040   12.1540  4489.5000    0.0820  105.7170   88.1140   88.5500    1.5900    1.8300    1.9500    0.4960    2.3430  -12.6400
  4490.0000   12.4620   12.1550  4490.0000    0.0660   99.1660   88.4510   86.3880    1.5600    1.8300    2.9800    0.4880    2.3130  -15.1800
  4490.5000   12.3730   12.1630  4490.5000    0.0490   97.1930   87.3710   84.0290    1.5200    1.8100    2.9600    0.4710    2.3260  -19.1800
  4491.0000   12.2840   12.1700  4491.0000    0.0320   98.4840   85.0420   80.8110    1.4700    1.8000    2.9200    0.4420    2.3250  -23.1700
  4491.5000   12.2070   12.1780  4491.5000    0.0550   99.9620   82.7520   77.5360    1.4300    1.7500    2.9100    0.4020    2.3540  -27.1200
  4492.0000   12.2030   12.1860  4492.0000    0.0800  101.4400   82.9580   74.2240    1.3900    1.6900    2.8700    0.3810    2.3960  -33.2600
  4492.5000   12.1970   12.1930  4492.5000    0.0830  102.6090   82.9450   73.0990    1.3400    1.6200    2.7300    0.3860    2.3790  -39.8600
  4493.0000   12.1910   12.2010  4493.0000    0.0830  102.7310   81.0250   77.5680    1.3000    1.5400    2.5900    0.3850    2.3640  -46.5300
  4493.5000   12.1770   12.2090  4493.5000    0.0720  102.0750   79.0970   80.6840    1.2700    1.4600    2.4700    0.3830    2.3470  -50.5900
  4494.0000   12.1600   12.2100  4494.0000    0.0570  101.4180   78.2950   83.5870    1.2200    1.4700    2.3100    0.3920    2.3270  -52.8200
  4494.5000   12.1430   12.2110  4494.5000    0.0510  101.9460   78.2620   85.1730    1.2400    1.4800    2.4700    0.4070    2.3330  -48.8400
  4495.0000   12.1390   12.1390  4495.0000    0.0520  103.4890   80.5910   86.8330    1.2900    1.5400    2.8700    0.4010    2.3390  -40.1000
  4495.5000   12.1920   12.0220  4495.5000    0.0490  105.2190   82.8430   85.8980    1.3300    1.6000    2.7500    0.3920    2.3430  -31.5800
  4496.0000   12.2430   11.9430  4496.0000    0.0420  106.2580   83.4820   83.4070    1.3800    1.6700    2.5000    0.3860    2.3460  -24.7100
  4496.5000   12.2840   12.0280  4496.5000    0.0390  106.8090   81.8690   81.4290    1.4300    1.7400    2.5500    0.3900    2.3510  -23.6400
  4497.0000   12.1660   12.1090  4497.0000    0.0660  107.7210   80.2890   79.5680    1.4800    1.7800    2.6300    0.3960    2.3810  -23.9900
  4497.5000   12.0440   12.1720  4497.5000    0.0550  108.6010   78.7180   77.7280    1.5300    1.8100    2.6700    0.4090    2.3580  -24.3200
  4498.0000   12.0950   12.1760  4498.0000    0.0460  108.6010   78.7060   76.5510    1.5800    1.8300    2.6300    0.4210    2.3410  -23.3600
  4498.5000   12.1700   12.1810  4498.5000    0.0390  109.1950   80.5940   77.6610    1.5700    1.8500    2.6000    0.4340    2.3320  -22.1300
  4499.0000   12.1810   12.1860  4499.0000    0.0430  108.9690   82.4810   78.7200    1.5600    1.8700    2.5700    0.4370    2.3280  -23.9800
  4499.5000   12.1210   12.1910  4499.5000    0.0400  107.5100   80.8700   79.5490    1.5500    1.8500    2.7000    0.4350    2.3100  -25.8900
  4500.0000   12.0620   12.1970  4500.0000    0.0510  108.5550   79.1330   77.6440    1.5500    1.8300    2.8900    0.4330    2.3040  -24.4500
  4500.5000   12.0010   12.2020  4500.5000    0.0620  110.0650   79.7260   75.7720    1.5400    1.8200    3.0300    0.4290    2.3060  -21.7500
  4501.0000   11.9420   12.2070  4501.0000    0.0650  110.8120   80.3630   73.8920    1.5200    1.8000    2.7800    0.4240    2.3210  -19.0000
  4501.5000   11.8920   12.2060  4501.5000    0.0310  109.9870   81.0320   74.6110    1.4900    1.7700    2.5200    0.4190    2.3090  -20.4400
  4502.0000   11.9210   12.1920  4502.0000    0.0400  109.6310   80.1090   77.4460    1.4600    1.7400    2.5300    0.4300    2.3280  -22.2300
  4502.5000   11.9510   12.1790  4502.5000    0.0540  111.7100   78.7160   80.3040    1.4400    1.7000    2.5400    0.4450    2.3530  -23.8200
  4503.0000   12.0400   12.1650  4503.0000    0.0600  113.3090   77.4870   83.1730    1.4100    1.6700    2.5500    0.4600    2.3680  -19.0900
  4503.5000   12.1330   12.1520  4503.5000    0.0390  114.0580   77.3060   86.0250    1.3800    1.6100    2.2000    0.4740    2.3730  -15.5200
  4504.0000   12.2040   12.1390  4504.0000    0.0470  112.0730   77.1100   87.6350    1.3500    1.5400    1.9400    0.4680    2.3810  -18.8200
  4504.5000   12.2130   12.1250  4504.5000    0.0600  112.7680   77.1410   86.8260    1.3300    1.5500    1.8000    0.4640    2.4110  -22.8400
  4505.0000   12.1150   12.1110  4505.0000    0.0740  111.8750   78.2180   86.4090    1.3100    1.5500    2.2000    0.4740    2.3860  -25.3200
  4505.5000   12.0190   12.1360  4505.5000    0.0690  115.5220   80.4730   87.2080    1.3500    1.5500    2.4600    0.4790    2.3530  -21.2800
  4506.0000   11.9210   12.1670  4506.0000    0.0630  118.1550   82.9090   87.9750    1.3800    1.5800    2.2400    0.4620    2.3440  -17.3900
  4506.5000   12.0100   12.1970  4506.5000    0.0720  120.6550   84.2470   87.1930    1.4100    1.6200    2.0800    0.4390    2.3720  -14.2000
  4507.0000   12.1890   12.2280  4507.0000    0.0580  127.3140   83.8050   82.5000    1.4500    1.6600    1.9000    0.4310    2.3870  -13.2100
  4507.5000   12.1360   12.2590  4507.5000    0.0470  138.2880   85.0480   76.8220    1.4900    1.7000    1.9700    0.4270    2.3870  -12.1500
  4508.0000   12.0510   12.2880  4508.0000    0.0430  138.0530   82.1600   73.0920    1.4900    1.7400    2.1000    0.4360    2.3860  -14.5900
  4508.5000   12.0090   12.2690  4508.5000    0.0440  139.0580   79.4200   74.7580    1.5000    1.7400    2.2400    0.4580    2.4150  -17.4500
  4509.0000   12.0810   12.2460  4509.0000    0.0160  133.8030   76.7350   79.2940    1.5000    1.7400    2.3900    0.4820    2.4530  -18.1100
  4509.5000   12.1530   12.2230  4509.5000   -0.0010  129.2980   75.6670   83.4740    1.5100    1.7400    2.2000    0.5060    2.4860  -16.7200
  4510.0000   12.1930   12.2010  4510.0000    0.0320  126.0130   78.4370   85.5450    1.5200    1.7400    1.9700    0.5130    2.4990  -16.5200
  4510.5000   12.2250   12.1780  4510.5000    0.0550  123.7150   81.1680   84.1230    1.5200    1.7400    2.4800    0.5170    2.4810  -17.3000
  4511.0000   12.2570   12.1650  4511.0000    0.0540  126.7560   80.9710   83.0220    1.5300    1.7400    2.3900    0.5090    2.4170  -18.1100
  4511.5000   12.2340   12.1580  4511.5000    0.0620  121.0300   78.5630   83.4840    1.4400    1.7500    2.2400    0.4690    2.3860  -18.8500
