~Version Information Section
 VERS.      2.0         :CWLS LOG ASCII STANDARD - VERSION 2.0
 WRAP.      NO          :SINGLE LINE PER DEPTH STEP
 CREA.      8/24/2011 12:45:27
~Well Information Section
#MNEM.UNIT                      VALUE/NAME                 DESCRIPTION
#----.----     ----------------------------------   --------------------
 STRT .FT           1040.0000                         :START DEPTH
 STOP .FT          11320.0000                         :STOP DEPTH
 STEP .FT              0.5000                         :STEP VALUE
 NULL .             -999.0000                         :NULL VALUE
 SRVC .          SCH                                  :Service Company/Logging company
 DATE .          08/24/2011                           :LAS file Creation Date
 WELL .          PENOBSCOT B-41                       :Well Name
 COMP .          SHELL CANADARESOURCES LIMITED        :Company
 FLD  .          WILDCAT                              :Field
 STATE.          CALAGARY, ALBERTA                    :State
 COUNT.          CANADA                               :Country
 LOC  .          44'10'02; N LAT|60'06'32; W LO       :Location
 LATI .          0                                    :Latitude/Northing
 LONG .          0                                    :Longitude/Easting
 PDAT .          UNK                                  :Permanent Datum
 EPDAT.          0.0000                               :Elevation of Permanent Datum
 KB   .          99.0000                              :KB Elevation
 GL   .          -387.0000                            :GL Elevation
 RWS  .          0                                    :Def_Rw
 WST  .          0                                    :Def_Rwt
 ERT  .          0.0000                               :RT Elevation
 CNTY .          NOVA SCOTIA SHELF                    :County
~Curve Information Section
#MNEM  .UNIT         CURVE DESCRIPTION
#----  .----         -------------------------
 DEPTH .FT           :1 Depth
 CALD  .IN           :2 Caliper    Density Caliper
 CALS  .IN           :3 Caliper    DT Caliper
 DEPTH .FT           :4 Depth
 DRHO  .G/C3         :5 Drho       Delta Rho
 DT    .US/FT        :6 Sonic      Delta-T
 GRD   .GAPI         :7 GammaRay   Gamma Ray Density
 GRS   .GAPI         :8 GammaRay   Gamma Ray Sonic
 ILD   .OHMM         :9 DeepRes    Deep Induction Standard Processed Resistivity
 ILM   .OHMM         :10 MedRes    Medium Induction Standard Processed Resistivity
 LL8   .OHMM         :11 LL8       Shallow - Latero-Log 8
 NPHISS.V/V          :12 Neutron    Neutron Porosity – Ss Mtx
 RHOB  .G/C3         :13 Density    Bulk Density
 SP    .MV           :14 SP         Spontaneous Potential
~Parameter Information Section
#MNEM.UNIT                      VALUE                       DESCRIPTION
#----.----     ----------------------------------   --------------------
~A  DEPTH     CALD      CALS      DEPTH      DRHO       DT        GRD       GRS       ILD       ILM       LL8     NPHISS     RHOB       SP    
# ...
  2440.0000 -999.0000   12.0820  2440.0000 -999.0000  136.5570 -999.0000   59.2930    1.5400    1.7300    1.8900 -999.0000 -999.0000   11.1900
  2440.5000 -999.0000   12.1020  2440.5000 -999.0000  136.9660 -999.0000   59.9230    1.5700    1.7400    1.9400 -999.0000 -999.0000   10.6200
  2441.0000 -999.0000   12.1210  2441.0000 -999.0000  137.7280 -999.0000   60.5560    1.6000    1.7500    2.0000 -999.0000 -999.0000    9.3700
  2441.5000 -999.0000   12.1110  2441.5000 -999.0000  138.1210 -999.0000   61.1750    1.6200    1.7600    1.9800 -999.0000 -999.0000    7.6700
  2442.0000 -999.0000   12.0750  2442.0000 -999.0000  137.6090 -999.0000   62.8100    1.6500    1.7700    1.9500 -999.0000 -999.0000    6.9600
  2442.5000 -999.0000   12.0380  2442.5000 -999.0000  137.1040 -999.0000   64.7900    1.6700    1.7800    1.9200 -999.0000 -999.0000    6.9100
  2443.0000 -999.0000   12.0020  2443.0000 -999.0000  136.5740 -999.0000   66.7930    1.6300    1.7700    1.8900 -999.0000 -999.0000    5.7400
  2443.5000 -999.0000   11.9650  2443.5000 -999.0000  136.9350 -999.0000   67.5070    1.6000    1.7500    1.8600 -999.0000 -999.0000    4.5900
  2444.0000 -999.0000   11.9900  2444.0000 -999.0000  137.2890 -999.0000   67.2970    1.5700    1.7400    1.8900 -999.0000 -999.0000    5.2400
  2444.5000 -999.0000   12.0590  2444.5000 -999.0000  137.4320 -999.0000   67.0680    1.5400    1.7300    1.9300 -999.0000 -999.0000    5.9700
  2445.0000 -999.0000   12.1280  2445.0000 -999.0000  137.8530 -999.0000   66.8490    1.5200    1.7200    1.9700 -999.0000 -999.0000    6.7000
  2445.5000 -999.0000   12.1690  2445.5000 -999.0000  138.3560 -999.0000   65.6560    1.5600    1.7200    1.9300 -999.0000 -999.0000    7.4400
  2446.0000 -999.0000   12.1580  2446.0000 -999.0000  138.4090 -999.0000   63.8990    1.5900    1.7200    1.8900 -999.0000 -999.0000    7.1800
  2446.5000 -999.0000   12.1420  2446.5000 -999.0000  138.1550 -999.0000   63.5380    1.6200    1.7300    1.8400 -999.0000 -999.0000    6.7300
  2447.0000 -999.0000   12.1040  2447.0000 -999.0000  137.7670 -999.0000   65.2200    1.6400    1.7300    1.8000 -999.0000 -999.0000    6.2900
  2447.5000 -999.0000   12.0670  2447.5000 -999.0000  136.8850 -999.0000   66.6180    1.6100    1.7300    1.7500 -999.0000 -999.0000    6.3700
  2448.0000 -999.0000   12.0300  2448.0000 -999.0000  136.8390 -999.0000   64.1550    1.5800    1.7200    1.7700 -999.0000 -999.0000    7.1100
  2448.5000 -999.0000   12.0240  2448.5000 -999.0000  137.2550 -999.0000   61.6240    1.5600    1.7100    1.8100 -999.0000 -999.0000    7.8400
  2449.0000 -999.0000   12.0550  2449.0000 -999.0000  137.6710 -999.0000   59.1050    1.5300    1.7000    1.8400 -999.0000 -999.0000    8.5700
  2449.5000 -999.0000   12.0860  2449.5000 -999.0000  138.0870 -999.0000   56.9400    1.5100    1.6900    1.8700 -999.0000 -999.0000    9.3100
  2450.0000 -999.0000   12.1170  2450.0000 -999.0000  138.5060 -999.0000   58.3940    1.5200    1.6900    1.9200 -999.0000 -999.0000   10.0900
  2450.5000 -999.0000   12.1480  2450.5000 -999.0000  138.9540 -999.0000   59.8590    1.5400    1.6800    1.9000 -999.0000 -999.0000    9.6200
  2451.0000 -999.0000   12.1210  2451.0000 -999.0000  138.7280 -999.0000   61.3200    1.5500    1.6700    1.8700 -999.0000 -999.0000    8.6700
  2451.5000 -999.0000   12.0890  2451.5000 -999.0000  138.4770 -999.0000   62.7660    1.5600    1.6900    1.8400 -999.0000 -999.0000    8.7500
  2452.0000 -999.0000   12.0570  2452.0000 -999.0000  138.5210 -999.0000   61.5920    1.5700    1.7100    1.8200 -999.0000 -999.0000    9.1600
  2452.5000 -999.0000   12.0310  2452.5000 -999.0000  138.8220 -999.0000   60.2310    1.5900    1.7300    1.7800 -999.0000 -999.0000    9.0300
  2453.0000 -999.0000   12.0490  2453.0000 -999.0000  139.1230 -999.0000   61.1990    1.6000    1.7500    1.8100 -999.0000 -999.0000    8.4500
  2453.5000 -999.0000   12.0660  2453.5000 -999.0000  139.0770 -999.0000   62.3530    1.5700    1.7400    1.8700 -999.0000 -999.0000    7.8600
  2454.0000 -999.0000   12.0830  2454.0000 -999.0000  138.7570 -999.0000   62.6590    1.5600    1.7300    1.9100 -999.0000 -999.0000    7.2400
  2454.5000 -999.0000   12.1000  2454.5000 -999.0000  138.3520 -999.0000   62.3460    1.5400    1.7100    1.8800 -999.0000 -999.0000    5.7700
  2455.0000 -999.0000   12.1160  2455.0000 -999.0000  137.9390 -999.0000   62.0220    1.5200    1.7000    1.8600 -999.0000 -999.0000    5.5700
  2455.5000 -999.0000   12.1320  2455.5000 -999.0000  137.5250 -999.0000   61.6980    1.5500    1.7000    1.8300 -999.0000 -999.0000    5.8500
  2456.0000 -999.0000   12.1420  2456.0000 -999.0000  137.7700 -999.0000   61.3800    1.5700    1.6900    1.8100 -999.0000 -999.0000    5.3200
  2456.5000 -999.0000   12.1510  2456.5000 -999.0000  138.4290 -999.0000   61.0070    1.5800    1.6900    1.8400 -999.0000 -999.0000    6.0900
  2457.0000 -999.0000   12.1610  2457.0000 -999.0000  139.0880 -999.0000   59.4950    1.6000    1.6900    1.8500 -999.0000 -999.0000    5.9600
  2457.5000 -999.0000   12.1710  2457.5000 -999.0000  139.2300 -999.0000   60.0290    1.5800    1.6900    1.8800 -999.0000 -999.0000    5.5000
  2458.0000 -999.0000   12.1810  2458.0000 -999.0000  138.7570 -999.0000   61.0120    1.5600    1.6900    1.8700 -999.0000 -999.0000    5.1300
  2458.5000 -999.0000   12.1880  2458.5000 -999.0000  139.1560 -999.0000   60.1880    1.5500    1.6900    1.8400 -999.0000 -999.0000    5.6700
  2459.0000 -999.0000   12.1450  2459.0000 -999.0000  139.0290 -999.0000   58.3620    1.5300    1.6900    1.8200 -999.0000 -999.0000    6.9600
  2459.5000 -999.0000   12.1000  2459.5000 -999.0000  138.3440 -999.0000   58.7520    1.5200    1.7000    1.8000 -999.0000 -999.0000    8.1100
  2460.0000 -999.0000   12.0580  2460.0000 -999.0000  137.6590 -999.0000   60.1630    1.5100    1.7000    1.7800 -999.0000 -999.0000    7.8400
  2460.5000 -999.0000   11.9630  2460.5000 -999.0000  136.9770 -999.0000   61.0810    1.5300    1.7000    1.8200 -999.0000 -999.0000    7.5300
  2461.0000 -999.0000   11.8640  2461.0000 -999.0000  136.4810 -999.0000   61.9910    1.5500    1.7100    1.8500 -999.0000 -999.0000    7.2200
  2461.5000 -999.0000   11.8760  2461.5000 -999.0000  137.4990 -999.0000   61.4150    1.5700    1.7100    1.8900 -999.0000 -999.0000    6.9100
  2462.0000 -999.0000   12.0130  2462.0000 -999.0000  138.5590 -999.0000   60.1900    1.5900    1.7100    1.9300 -999.0000 -999.0000    6.6800
  2462.5000 -999.0000   12.1120  2462.5000 -999.0000  138.8130 -999.0000   60.8080    1.6200    1.7200    1.9200 -999.0000 -999.0000    7.3800
  2463.0000 -999.0000   12.1090  2463.0000 -999.0000  139.0830 -999.0000   62.1330    1.6100    1.7200    1.8900 -999.0000 -999.0000    7.2400
  2463.5000 -999.0000   12.1040  2463.5000 -999.0000  139.1770 -999.0000   63.4860    1.5800    1.7100    1.8700 -999.0000 -999.0000    7.0100
  2464.0000 -999.0000   12.1000  2464.0000 -999.0000  138.9710 -999.0000   64.8450    1.5500    1.7100    1.8400 -999.0000 -999.0000    7.2500
  2464.5000 -999.0000   12.0950  2464.5000 -999.0000  138.7580 -999.0000   66.1960    1.5200    1.7100    1.8200 -999.0000 -999.0000    7.5200
  2465.0000 -999.0000   12.0910  2465.0000 -999.0000  138.3600 -999.0000   67.1570    1.5000    1.7100    1.8000 -999.0000 -999.0000    6.3300
  2465.5000 -999.0000   12.0860  2465.5000 -999.0000  137.9580 -999.0000   65.4200    1.5500    1.7100    1.8400 -999.0000 -999.0000    4.6600
  2466.0000 -999.0000   12.0820  2466.0000 -999.0000  137.5650 -999.0000   63.6900    1.5900    1.7000    1.8800 -999.0000 -999.0000    4.2300
  2466.5000 -999.0000   12.0770  2466.5000 -999.0000  137.5330 -999.0000   62.0520    1.6500    1.7000    1.9200 -999.0000 -999.0000    4.7400
  2467.0000 -999.0000   12.0730  2467.0000 -999.0000  137.5010 -999.0000   63.8080    1.6300    1.7000    1.9700 -999.0000 -999.0000    5.2700
  2467.5000 -999.0000   12.0680  2467.5000 -999.0000  137.4700 -999.0000   64.8210    1.5900    1.7000    1.9400 -999.0000 -999.0000    5.7900
