~Version Information Section
 VERS.      2.0         :CWLS LOG ASCII STANDARD - VERSION 2.0
 WRAP.      NO          :SINGLE LINE PER DEPTH STEP
 CREA.      8/24/2011 12:45:27
~Well Information Section
#MNEM.UNIT                      VALUE/NAME                 DESCRIPTION
#----.----     ----------------------------------   --------------------
 STRT .FT           1040.0000                         :START DEPTH
 STOP .FT          11320.0000                         :STOP DEPTH
 STEP .FT              0.5000                         :STEP VALUE
 NULL .             -999.0000                         :NULL VALUE
 SRVC .          SCH                                  :Service Company/Logging company
 DATE .          08/24/2011                           :LAS file Creation Date
 WELL .          PENOBSCOT B-41                       :Well Name
 COMP .          SHELL CANADARESOURCES LIMITED        :Company
 FLD  .          WILDCAT                              :Field
 STATE.          CALAGARY, ALBERTA                    :State
 COUNT.          CANADA                               :Country
 LOC  .          44'10'02; N LAT|60'06'32; W LO       :Location
 LATI .          0                                    :Latitude/Northing
 LONG .          0                                    :Longitude/Easting
 PDAT .          UNK                                  :Permanent Datum
 EPDAT.          0.0000                               :Elevation of Permanent Datum
 KB   .          99.0000                              :KB Elevation
 GL   .          -387.0000                            :GL Elevation
 RWS  .          0                                    :Def_Rw
 WST  .          0                                    :Def_Rwt
 ERT  .          0.0000                               :RT Elevation
 CNTY .          NOVA SCOTIA SHELF                    :County
~Curve Information Section
#MNEM  .UNIT         CURVE DESCRIPTION
#----  .----         -------------------------
 DEPTH .FT           :1 Depth
 CALD  .IN           :2 Caliper    Density Caliper
 CALS  .IN           :3 Caliper    DT Caliper
 DEPTH .FT           :4 Depth
 DRHO  .G/C3         :5 Drho       Delta Rho
 DT    .US/FT        :6 Sonic      Delta-T
 GRD   .GAPI         :7 GammaRay   Gamma Ray Density
 GRS   .GAPI         :8 GammaRay   Gamma Ray Sonic
 ILD   .OHMM         :9 DeepRes    Deep Induction Standard Processed Resistivity
 ILM   .OHMM         :10 MedRes    Medium Induction Standard Processed Resistivity
 LL8   .OHMM         :11 LL8       Shallow - Latero-Log 8
 NPHISS.V/V          :12 Neutron    Neutron Porosity – Ss Mtx
 RHOB  .G/C3         :13 Density    Bulk Density
 SP    .MV           :14 SP         Spontaneous Potential
~Parameter Information Section
#MNEM.UNIT                      VALUE                       DESCRIPTION
#----.----     ----------------------------------   --------------------
~A  DEPTH     CALD      CALS      DEPTH      DRHO       DT        GRD       GRS       ILD       ILM       LL8     NPHISS     RHOB       SP    
# ...
  1096.0000 -999.0000   10.7250  1096.0000 -999.0000  173.9960 -999.0000   38.1200    1.2700    1.4900    2.5500 -999.0000 -999.0000  -38.8100
  1096.5000 -999.0000   10.7220  1096.5000 -999.0000  158.8940 -999.0000   38.7140    1.5300    1.5600    2.6600 -999.0000 -999.0000  -37.7500
  1097.0000 -999.0000   10.7190  1097.0000 -999.0000  151.5230 -999.0000   39.3030    1.9000    1.6400    2.7700 -999.0000 -999.0000  -37.4400
  1097.5000 -999.0000   10.7170  1097.5000 -999.0000  149.3770 -999.0000   39.6670    1.7800    1.7200    2.8400 -999.0000 -999.0000  -38.2100
  1098.0000 -999.0000   10.7140  1098.0000 -999.0000  165.4600 -999.0000   39.2120    1.6600    1.8000    2.8000 -999.0000 -999.0000  -38.4600
  1098.5000 -999.0000   10.7110  1098.5000 -999.0000  167.0250 -999.0000   38.7750    1.6300    1.8500    2.7500 -999.0000 -999.0000  -38.0800
  1099.0000 -999.0000   10.7080  1099.0000 -999.0000  145.9100 -999.0000   38.3330    1.6100    1.7500    2.4900 -999.0000 -999.0000  -37.7000
  1099.5000 -999.0000   10.7060  1099.5000 -999.0000  128.3330 -999.0000   38.0110    1.6000    1.7000    2.3100 -999.0000 -999.0000  -37.3200
  1100.0000 -999.0000   10.7030  1100.0000 -999.0000  132.4150 -999.0000   39.1780    1.6200    1.7200    2.1600 -999.0000 -999.0000  -36.9300
  1100.5000 -999.0000   10.7000  1100.5000 -999.0000  138.9560 -999.0000   40.3770    1.6500    1.7400    2.1700 -999.0000 -999.0000  -36.5500
  1101.0000 -999.0000   10.6970  1101.0000 -999.0000  135.4830 -999.0000   40.4680    1.6900    1.7600    2.1900 -999.0000 -999.0000  -37.1300
  1101.5000 -999.0000   10.6950  1101.5000 -999.0000  126.6860 -999.0000   40.2170    1.6700    1.7500    2.2000 -999.0000 -999.0000  -37.6000
  1102.0000 -999.0000   10.6920  1102.0000 -999.0000  115.9940 -999.0000   39.5990    1.6500    1.7300    2.2200 -999.0000 -999.0000  -36.3600
  1102.5000 -999.0000   10.6900  1102.5000 -999.0000  116.7890 -999.0000   38.2370    1.6300    1.7000    2.1600 -999.0000 -999.0000  -35.1200
  1103.0000 -999.0000   10.6910  1103.0000 -999.0000  117.9300 -999.0000   36.8830    1.6100    1.6800    2.1000 -999.0000 -999.0000  -33.8800
  1103.5000 -999.0000   10.6920  1103.5000 -999.0000  118.8770 -999.0000   35.4910    1.6400    1.6700    2.0200 -999.0000 -999.0000  -32.6600
  1104.0000 -999.0000   10.6930  1104.0000 -999.0000  117.4310 -999.0000   35.7960    1.6600    1.7100    2.0500 -999.0000 -999.0000  -33.3000
  1104.5000 -999.0000   10.6940  1104.5000 -999.0000  116.2210 -999.0000   36.4960    1.6900    1.7400    2.1100 -999.0000 -999.0000  -34.0700
  1105.0000 -999.0000   10.6940  1105.0000 -999.0000  115.2980 -999.0000   37.5030    1.7200    1.7700    2.1700 -999.0000 -999.0000  -34.8300
  1105.5000 -999.0000   10.6950  1105.5000 -999.0000  116.5760 -999.0000   39.8180    1.7500    1.7900    2.2600 -999.0000 -999.0000  -35.5900
  1106.0000 -999.0000   10.6960  1106.0000 -999.0000  117.6090 -999.0000   41.8350    1.7800    1.8200    2.2100 -999.0000 -999.0000  -36.3800
  1106.5000 -999.0000   10.6970  1106.5000 -999.0000  118.6420 -999.0000   43.0060    1.8100    1.8600    2.1400 -999.0000 -999.0000  -37.2100
  1107.0000 -999.0000   10.6980  1107.0000 -999.0000  120.5870 -999.0000   44.1480    1.8500    1.9000    2.0400 -999.0000 -999.0000  -37.8600
  1107.5000 -999.0000   10.6980  1107.5000 -999.0000  126.2660 -999.0000   46.5350    1.8300    1.8600    2.0600 -999.0000 -999.0000  -38.1900
  1108.0000 -999.0000   10.6990  1108.0000 -999.0000  143.6850 -999.0000   49.4200    1.8000    1.7900    2.1000 -999.0000 -999.0000  -38.9000
  1108.5000 -999.0000   10.7000  1108.5000 -999.0000  165.4210 -999.0000   52.3350    1.7700    1.7300    2.1300 -999.0000 -999.0000  -39.8400
  1109.0000 -999.0000   10.7010  1109.0000 -999.0000  173.8070 -999.0000   55.2560    1.7500    1.6700    2.1600 -999.0000 -999.0000  -40.7900
  1109.5000 -999.0000   10.7020  1109.5000 -999.0000  168.5400 -999.0000   58.2770    1.7800    1.6400    1.8600 -999.0000 -999.0000  -41.5200
  1110.0000 -999.0000   10.7030  1110.0000 -999.0000  172.4520 -999.0000   59.7810    1.8100    1.6700    1.9200 -999.0000 -999.0000  -41.9400
  1110.5000 -999.0000   10.7030  1110.5000 -999.0000  127.1480 -999.0000   58.4400    1.8300    1.7000    1.9900 -999.0000 -999.0000  -42.3700
  1111.0000 -999.0000   10.7040  1111.0000 -999.0000   90.2490 -999.0000   56.1110    1.7800    1.6700    2.0600 -999.0000 -999.0000  -42.7900
  1111.5000 -999.0000   10.7050  1111.5000 -999.0000  180.4080 -999.0000   52.2940    1.7400    1.6200    1.9500 -999.0000 -999.0000  -43.2100
  1112.0000 -999.0000   10.7060  1112.0000 -999.0000   90.0500 -999.0000   48.4810    1.7100    1.5700    1.8400 -999.0000 -999.0000  -43.6400
  1112.5000 -999.0000   10.7070  1112.5000 -999.0000   89.8510 -999.0000   46.0600    1.6700    1.5000    1.7300 -999.0000 -999.0000  -44.0500
  1113.0000 -999.0000   10.7070  1113.0000 -999.0000  156.2640 -999.0000   44.4990    1.6400    1.5200    1.5800 -999.0000 -999.0000  -43.8300
  1113.5000 -999.0000   10.7080  1113.5000 -999.0000  189.6520 -999.0000   44.4690    1.6600    1.5600    1.6700 -999.0000 -999.0000  -41.2900
  1114.0000 -999.0000   10.7090  1114.0000 -999.0000  173.3510 -999.0000   44.7650    1.6800    1.6000    1.8700 -999.0000 -999.0000  -38.8200
  1114.5000 -999.0000   10.7100  1114.5000 -999.0000  160.5580 -999.0000   43.6940    1.7000    1.6400    2.1600 -999.0000 -999.0000  -37.5800
  1115.0000 -999.0000   10.7040  1115.0000 -999.0000  150.5860 -999.0000   41.9510    1.7100    1.6900    2.1200 -999.0000 -999.0000  -36.9200
  1115.5000 -999.0000   10.6970  1115.5000 -999.0000  162.9770 -999.0000   40.7320    1.7300    1.7300    2.0800 -999.0000 -999.0000  -36.2600
  1116.0000 -999.0000   10.6890  1116.0000 -999.0000  176.4300 -999.0000   41.2410    1.7500    1.7800    2.0400 -999.0000 -999.0000  -36.1300
  1116.5000 -999.0000   10.6820  1116.5000 -999.0000  185.0800 -999.0000   41.7280    1.7700    1.8300    1.9900 -999.0000 -999.0000  -36.5600
  1117.0000 -999.0000   10.6750  1117.0000 -999.0000  144.9840 -999.0000   41.2380    1.8000    1.8700    2.0100 -999.0000 -999.0000  -37.0200
  1117.5000 -999.0000   10.6680  1117.5000 -999.0000   90.8450 -999.0000   40.3630    1.7800    1.9100    2.0600 -999.0000 -999.0000  -36.7400
  1118.0000 -999.0000   10.6600  1118.0000 -999.0000  133.9470 -999.0000   39.5080    1.7500    1.7800    2.1100 -999.0000 -999.0000  -36.1900
  1118.5000 -999.0000   10.6530  1118.5000 -999.0000  159.5330 -999.0000   40.8530    1.7300    1.6700    2.1800 -999.0000 -999.0000  -35.6600
  1119.0000 -999.0000   10.6530  1119.0000 -999.0000   89.7510 -999.0000   42.3870    1.7000    1.5600    2.0500 -999.0000 -999.0000  -37.0100
  1119.5000 -999.0000   10.6580  1119.5000 -999.0000   89.7510 -999.0000   43.9820    1.6700    1.4700    1.8600 -999.0000 -999.0000  -38.5700
  1120.0000 -999.0000   10.6640  1120.0000 -999.0000   89.7510 -999.0000   42.6890    1.6500    1.4800    1.6200 -999.0000 -999.0000  -39.3500
  1120.5000 -999.0000   10.6690  1120.5000 -999.0000   89.7510 -999.0000   40.6720    1.6200    1.4900    1.6700 -999.0000 -999.0000  -40.1000
  1121.0000 -999.0000   10.6690  1121.0000 -999.0000   89.7510 -999.0000   38.6200    1.6500    1.5100    1.7500 -999.0000 -999.0000  -40.8600
  1121.5000 -999.0000   10.6670  1121.5000 -999.0000   89.7510 -999.0000   37.5580    1.6800    1.5200    1.8300 -999.0000 -999.0000  -41.6200
  1122.0000 -999.0000   10.6650  1122.0000 -999.0000  125.6230 -999.0000   36.7950    1.7100    1.5300    1.8300 -999.0000 -999.0000  -42.4100
  1122.5000 -999.0000   10.6640  1122.5000 -999.0000  189.9500 -999.0000   37.6550    1.7400    1.5600    1.8300 -999.0000 -999.0000  -42.2400
  1123.0000 -999.0000   10.6620  1123.0000 -999.0000  167.5360 -999.0000   38.6630    1.7700    1.6100    1.8300 -999.0000 -999.0000  -41.8300
  1123.5000 -999.0000   10.6610  1123.5000 -999.0000   89.6520 -999.0000   41.8250    1.8100    1.6600    1.9200 -999.0000 -999.0000  -41.4100
