~Version Information Section
 VERS.      2.0         :CWLS LOG ASCII STANDARD - VERSION 2.0
 WRAP.      NO          :SINGLE LINE PER DEPTH STEP
 CREA.      8/24/2011 12:45:27
~Well Information Section
#MNEM.UNIT                      VALUE/NAME                 DESCRIPTION
#----.----     ----------------------------------   --------------------
 STRT .FT           1040.0000                         :START DEPTH
 STOP .FT          11320.0000                         :STOP DEPTH
 STEP .FT              0.5000                         :STEP VALUE
 NULL .             -999.0000                         :NULL VALUE
 SRVC .          SCH                                  :Service Company/Logging company
 DATE .          08/24/2011                           :LAS file Creation Date
 WELL .          PENOBSCOT B-41                       :Well Name
 COMP .          SHELL CANADARESOURCES LIMITED        :Company
 FLD  .          WILDCAT                              :Field
 STATE.          CALAGARY, ALBERTA                    :State
 COUNT.          CANADA                               :Country
 LOC  .          44'10'02; N LAT|60'06'32; W LO       :Location
 LATI .          0                                    :Latitude/Northing
 LONG .          0                                    :Longitude/Easting
 PDAT .          UNK                                  :Permanent Datum
 EPDAT.          0.0000                               :Elevation of Permanent Datum
 KB   .          99.0000                              :KB Elevation
 GL   .          -387.0000                            :GL Elevation
 RWS  .          0                                    :Def_Rw
 WST  .          0                                    :Def_Rwt
 ERT  .          0.0000                               :RT Elevation
 CNTY .          NOVA SCOTIA SHELF                    :County
~Curve Information Section
#MNEM  .UNIT         CURVE DESCRIPTION
#----  .----         -------------------------
 DEPTH .FT           :1 Depth
 CALD  .IN           :2 Caliper    Density Caliper
 CALS  .IN           :3 Caliper    DT Caliper
 DEPTH .FT           :4 Depth
 DRHO  .G/C3         :5 Drho       Delta Rho
 DT    .US/FT        :6 Sonic      Delta-T
 GRD   .GAPI         :7 GammaRay   Gamma Ray Density
 GRS   .GAPI         :8 GammaRay   Gamma Ray Sonic
 ILD   .OHMM         :9 DeepRes    Deep Induction Standard Processed Resistivity
 ILM   .OHMM         :10 MedRes    Medium Induction Standard Processed Resistivity
 LL8   .OHMM         :11 LL8       Shallow - Latero-Log 8
 NPHISS.V/V          :12 Neutron    Neutron Porosity – Ss Mtx
 RHOB  .G/C3         :13 Density    Bulk Density
 SP    .MV           :14 SP         Spontaneous Potential
~Parameter Information Section
#MNEM.UNIT                      VALUE                       DESCRIPTION
#----.----     ----------------------------------   --------------------
~A  DEPTH     CALD      CALS      DEPTH      DRHO       DT        GRD       GRS       ILD       ILM       LL8     NPHISS     RHOB       SP    
# ...
  9216.0000    8.6210    8.9820  9216.0000    0.0460   88.6430   37.2840   35.6660    0.5300    0.6500    2.2800    0.2970    2.3200  -55.5300
  9216.5000    8.6190    8.9820  9216.5000    0.0410   88.9600   38.1170   35.8390    0.5000    0.6400    2.5100    0.2940    2.3260  -55.9900
  9217.0000    8.6180    8.9820  9217.0000    0.0220   88.6560   37.0680   35.9990    0.4900    0.6300    2.3300    0.2970    2.3000  -55.6200
  9217.5000    8.6170    8.9820  9217.5000    0.0110   88.3400   35.9000   37.0280    0.4700    0.6200    2.2300    0.3000    2.2870  -55.2700
  9218.0000    8.6160    8.9820  9218.0000    0.0190   88.0240   34.7200   38.6360    0.4700    0.6300    2.2300    0.3030    2.2840  -54.6400
  9218.5000    8.6150    8.9820  9218.5000    0.0280   87.7080   34.7800   40.2810    0.4800    0.6300    2.2300    0.2990    2.2920  -53.8200
  9219.0000    8.6130    8.9820  9219.0000    0.0370   87.3920   35.5650   40.0010    0.4800    0.6300    2.2400    0.2950    2.3040  -53.0700
  9219.5000    8.6120    8.9820  9219.5000    0.0460   87.2760   36.3680   38.6210    0.4900    0.6300    2.2400    0.3010    2.3150  -53.4900
  9220.0000    8.6110    8.9820  9220.0000    0.0530   87.2780   37.1690   39.5280    0.4900    0.6400    2.2400    0.3080    2.3280  -53.9300
  9220.5000    8.6100    8.9820  9220.5000    0.0310   87.2770   37.2740   41.5350    0.4900    0.6400    2.2400    0.3160    2.3160  -54.3800
  9221.0000    8.6090    8.9820  9221.0000    0.0250   87.1650   37.2530   41.0470    0.5000    0.6400    2.2500    0.3180    2.3060  -54.8200
  9221.5000    8.6070    8.9840  9221.5000    0.0250   86.7710   38.0680   40.1780    0.5000    0.6400    2.2900    0.3170    2.3240  -54.9900
  9222.0000    8.6060    8.9890  9222.0000    0.0180   86.3760   38.9580   40.2840    0.5100    0.6500    2.3700    0.3160    2.3090  -54.3900
  9222.5000    8.6050    8.9940  9222.5000    0.0170   86.3310   39.8600   40.7180    0.5100    0.6600    2.4500    0.3180    2.3020  -53.8200
  9223.0000    8.6040    8.9980  9223.0000    0.0320   86.6050   39.8770   41.1620    0.5100    0.6700    2.5500    0.3200    2.3160  -53.3400
  9223.5000    8.6020    9.0030  9223.5000    0.0460   86.7820   39.1680   41.6040    0.5200    0.6800    2.5100    0.3130    2.3310  -53.4600
  9224.0000    8.6010    9.0080  9224.0000    0.0410   86.7820   38.4560   42.0430    0.5200    0.6900    2.4600    0.3060    2.3400  -53.5800
  9224.5000    8.6000    9.0130  9224.5000    0.0380   86.8820   38.0520   42.4920    0.5200    0.7000    2.4200    0.2990    2.3280  -53.6900
  9225.0000    8.5990    9.0170  9225.0000    0.0380   87.4260   39.2540   42.0820    0.5300    0.7000    2.4700    0.2980    2.3240  -53.8000
  9225.5000    8.5980    9.0230  9225.5000    0.0430   87.9770   40.4080   41.1330    0.5300    0.7000    2.5200    0.2960    2.3360  -53.9400
  9226.0000    8.5960    9.0530  9226.0000    0.0490   87.6980   42.9370   41.0930    0.5600    0.7000    2.5800    0.2880    2.3670  -53.1700
  9226.5000    8.5950    9.0850  9226.5000    0.0420   87.2490   46.1940   42.9410    0.6000    0.7000    2.5600    0.2820    2.3980  -52.2100
  9227.0000    8.5940    9.1160  9227.0000    0.0410   86.2560   48.1990   47.0690    0.6300    0.7100    2.5300    0.2880    2.4450  -51.3300
  9227.5000    8.5930    9.1470  9227.5000    0.0580   85.1630   45.3620   49.8900    0.6700    0.7400    2.5800    0.3030    2.4790  -46.5700
  9228.0000    8.5920    9.1780  9228.0000    0.0700   84.0710   37.9870   45.6810    0.7000    0.8000    2.6600    0.3240    2.4260  -40.1000
  9228.5000    8.5900    9.2090  9228.5000    0.0620   83.5150   30.6800   39.9270    0.7200    0.9100    2.7500    0.3450    2.3570  -33.9500
  9229.0000    8.5890    9.2400  9229.0000    0.0810   85.1520   25.9000   34.2870    0.7400    0.9400    2.0500    0.3580    2.3200  -30.2400
  9229.5000    8.5880    9.2660  9229.5000    0.0880   86.6130   23.3840   32.5340    0.6700    0.9500    2.1000    0.3110    2.3340  -38.6300
  9230.0000    8.5870    9.2810  9230.0000    0.0870   88.0270   22.0030   30.9420    0.6100    0.8400    2.1300    0.2910    2.3260  -46.5000
  9230.5000    8.5860    9.2950  9230.5000    0.0810   88.5400   23.0630   29.3470    0.5600    0.7700    1.6200    0.2870    2.3190  -53.9600
  9231.0000    8.5840    9.3090  9231.0000    0.0750   87.9030   24.0590   27.6890    0.5100    0.7100    1.6800    0.2930    2.2970  -55.6000
  9231.5000    8.5830    9.3240  9231.5000    0.0540   87.2660   24.5690   28.5770    0.4700    0.6500    1.7100    0.2990    2.2710  -56.8700
  9232.0000    8.5880    9.3380  9232.0000    0.0480   86.6290   24.1760   30.0780    0.4300    0.5900    1.4300    0.3010    2.2850  -56.4700
  9232.5000    8.5960    9.3530  9232.5000    0.0490   85.9910   23.7990   30.8350    0.4000    0.5600    1.2600    0.2970    2.2900  -55.9800
  9233.0000    8.6030    9.3850  9233.0000    0.0570   85.6470   23.4220   28.1550    0.3800    0.5400    1.3400    0.2930    2.2990  -55.4900
  9233.5000    8.6100    9.4420  9233.5000    0.0530   86.3340   23.2630   25.5500    0.3600    0.5300    1.4000    0.2970    2.2820  -56.0500
  9234.0000    8.6170    9.4980  9234.0000    0.0390   87.0210   23.4120   23.9150    0.3400    0.5200    1.3300    0.3040    2.2620  -56.8000
  9234.5000    8.6240    9.5550  9234.5000    0.0320   87.7080   23.5580   23.5250    0.3300    0.5100    1.2800    0.3030    2.2570  -57.2800
  9235.0000    8.6310    9.6120  9235.0000    0.0780   88.2280   23.6980   23.1220    0.3200    0.5100    1.2300    0.2980    2.2970  -57.7100
  9235.5000    8.6380    9.6380  9235.5000    0.0700   88.3410   23.5620   22.7310    0.3100    0.5000    1.2000    0.3010    2.3010  -58.1300
  9236.0000    8.6450    9.6320  9236.0000    0.0660   87.9100   22.5470   21.9880    0.3000    0.5000    1.1700    0.3020    2.2950  -58.5600
  9236.5000    8.6530    9.6260  9236.5000    0.0980   87.4800   21.5640   21.1200    0.3100    0.4900    1.1500    0.2900    2.3440  -58.9900
  9237.0000    8.6600    9.6220  9237.0000    0.0750   87.0490   21.3830   20.2610    0.3100    0.4900    1.1700    0.2790    2.3130  -58.3500
  9237.5000    8.6670    9.7150  9237.5000    0.0470   86.6200   21.8790   21.1560    0.3100    0.5000    1.1800    0.2670    2.2840  -57.6100
  9238.0000    8.6740    9.8170  9238.0000    0.0570   86.1890   22.4790   22.4550    0.3200    0.5100    1.2000    0.2600    2.2990  -56.8800
  9238.5000    8.6810    9.9180  9238.5000    0.0690   86.2820   23.5630   23.8370    0.3200    0.5200    1.1800    0.2550    2.3180  -56.1500
  9239.0000    8.6770   10.0190  9239.0000    0.0670   86.5330   24.6470   24.6440    0.3400    0.5300    1.1600    0.2630    2.3290  -55.4200
  9239.5000    8.6690   10.0940  9239.5000    0.0520   86.7840   25.6410   24.4480    0.3600    0.5700    1.3100    0.2700    2.3120  -54.9400
  9240.0000    8.6610   10.0480  9240.0000    0.0550   86.7410   26.4710   24.2600    0.4100    0.6100    1.4600    0.2720    2.3330  -54.6200
  9240.5000    8.6540   10.0020  9240.5000    0.0220   85.2270   28.0410   24.1790    0.4600    0.6500    1.6200    0.2630    2.3550  -54.3000
  9241.0000    8.6460    9.8270  9241.0000    0.0030   82.3490   30.0030   26.1360    0.5100    0.7000    1.7500    0.2560    2.3930  -54.0100
  9241.5000    8.6380    9.4770  9241.5000    0.0140   79.4710   31.9750   28.5310    0.5700    0.7400    1.7400    0.2560    2.4240  -52.8300
  9242.0000    8.6310    9.1310  9242.0000    0.0090   77.5400   33.9870   30.9390    0.6300    0.8300    1.7200    0.2570    2.4360  -51.5300
  9242.5000    8.6230    8.8620  9242.5000    0.0040   78.1430   33.9030   33.3410    0.7000    0.9300    2.1100    0.2470    2.4380  -50.2300
  9243.0000    8.6160    8.8210  9243.0000    0.0210   78.3670   32.9530   35.4400    0.7700    1.0100    2.2300    0.2450    2.4360  -48.8600
  9243.5000    8.6080    8.8220  9243.5000    0.0370   77.7090   31.9780   34.4020    0.8400    1.0800    2.3600    0.2450    2.4190  -49.2300
