~Version Information Section
 VERS.      2.0         :CWLS LOG ASCII STANDARD - VERSION 2.0
 WRAP.      NO          :SINGLE LINE PER DEPTH STEP
 CREA.      8/24/2011 12:45:27
~Well Information Section
#MNEM.UNIT                      VALUE/NAME                 DESCRIPTION
#----.----     ----------------------------------   --------------------
 STRT .FT           1040.0000                         :START DEPTH
 STOP .FT          11320.0000                         :STOP DEPTH
 STEP .FT              0.5000                         :STEP VALUE
 NULL .             -999.0000                         :NULL VALUE
 SRVC .          SCH                                  :Service Company/Logging company
 DATE .          08/24/2011                           :LAS file Creation Date
 WELL .          PENOBSCOT B-41                       :Well Name
 COMP .          SHELL CANADARESOURCES LIMITED        :Company
 FLD  .          WILDCAT                              :Field
 STATE.          CALAGARY, ALBERTA                    :State
 COUNT.          CANADA                               :Country
 LOC  .          44'10'02; N LAT|60'06'32; W LO       :Location
 LATI .          0                                    :Latitude/Northing
 LONG .          0                                    :Longitude/Easting
 PDAT .          UNK                                  :Permanent Datum
 EPDAT.          0.0000                               :Elevation of Permanent Datum
 KB   .          99.0000                              :KB Elevation
 GL   .          -387.0000                            :GL Elevation
 RWS  .          0                                    :Def_Rw
 WST  .          0                                    :Def_Rwt
 ERT  .          0.0000                               :RT Elevation
 CNTY .          NOVA SCOTIA SHELF                    :County
~Curve Information Section
#MNEM  .UNIT         CURVE DESCRIPTION
#----  .----         -------------------------
 DEPTH .FT           :1 Depth
 CALD  .IN           :2 Caliper    Density Caliper
 CALS  .IN           :3 Caliper    DT Caliper
 DEPTH .FT           :4 Depth
 DRHO  .G/C3         :5 Drho       Delta Rho
 DT    .US/FT        :6 Sonic      Delta-T
 GRD   .GAPI         :7 GammaRay   Gamma Ray Density
 GRS   .GAPI         :8 GammaRay   Gamma Ray Sonic
 ILD   .OHMM         :9 DeepRes    Deep Induction Standard Processed Resistivity
 ILM   .OHMM         :10 MedRes    Medium Induction Standard Processed Resistivity
 LL8   .OHMM         :11 LL8       Shallow - Latero-Log 8
 NPHISS.V/V          :12 Neutron    Neutron Porosity – Ss Mtx
 RHOB  .G/C3         :13 Density    Bulk Density
 SP    .MV           :14 SP         Spontaneous Potential
~Parameter Information Section
#MNEM.UNIT                      VALUE                       DESCRIPTION
#----.----     ----------------------------------   --------------------
~A  DEPTH     CALD      CALS      DEPTH      DRHO       DT        GRD       GRS       ILD       ILM       LL8     NPHISS     RHOB       SP    
# ...
  3140.0000   13.1220   12.6500  3140.0000    0.0550  105.6130   45.2300   36.6970    2.4500    2.6500    3.1300    0.4260    2.3720  -17.0200
  3140.5000   13.1860   12.6380  3140.5000    0.0460  104.2360   42.5720   35.1340    2.4700    2.6600    3.2500    0.4390    2.3780  -19.3000
  3141.0000   13.1160   12.6590  3141.0000    0.0390  104.9040   39.3000   36.5620    2.5000    2.6800    3.3200    0.4280    2.3740  -20.4100
  3141.5000   13.0300   12.6790  3141.5000    0.0140  105.5510   38.4920   38.4970    2.5200    2.7000    3.2300    0.4100    2.3640  -18.8800
  3142.0000   12.9910   12.7000  3142.0000    0.0070  106.1980   37.7910   40.4400    2.5500    2.7200    3.1700    0.3930    2.3830  -17.4000
  3142.5000   12.9640   12.7200  3142.5000    0.0140  106.8450   38.0260   42.3760    2.5700    2.7400    3.1100    0.3770    2.3960  -15.9200
  3143.0000   12.9380   12.7400  3143.0000    0.0130  108.0110   38.5250   43.3480    2.4700    2.6500    3.0500    0.3670    2.4050  -14.3900
  3143.5000   12.9110   12.7610  3143.5000    0.0080  109.5590   39.0200   43.3070    2.3700    2.5500    2.9900    0.3780    2.3910  -14.2300
  3144.0000   12.9070   12.7330  3144.0000    0.0150  113.5270   40.3200   45.3700    2.2700    2.4500    2.9800    0.3890    2.4000  -14.3900
  3144.5000   13.0170   12.6620  3144.5000    0.0160  118.1870   41.8320   48.1520    2.1800    2.3600    2.9800    0.4000    2.3900  -15.6700
  3145.0000   13.1250   12.5910  3145.0000    0.0090  124.1840   43.3490   50.9440    2.0900    2.2700    2.8600    0.3980    2.3720  -18.4400
  3145.5000   13.2160   12.5190  3145.5000    0.0120  130.2390   44.8690   53.4500    2.0100    2.1800    2.6300    0.3960    2.3510  -22.4700
  3146.0000   13.2360   12.5070  3146.0000    0.0290  132.4910   46.4970   54.2290    1.9300    2.0900    2.4100    0.4060    2.3350  -26.4700
  3146.5000   13.1970   12.5360  3146.5000    0.0590  129.9450   48.3000   53.9360    1.8500    2.0100    2.1400    0.4250    2.3330  -29.6200
  3147.0000   13.0710   12.5650  3147.0000    0.0830  126.3590   50.0950   51.8020    1.7800    1.9300    2.2100    0.4440    2.3170  -29.4800
  3147.5000   12.9550   12.5940  3147.5000    0.0910  127.6860   51.6720   49.6930    1.7100    1.8600    2.3100    0.4630    2.3000  -29.3900
  3148.0000   12.8890   12.6220  3148.0000    0.0960  129.2360   52.5640   48.9270    1.6300    1.8300    2.4600    0.4680    2.2960  -29.3100
  3148.5000   12.9860   12.6530  3148.5000    0.0900  130.0300   53.4810   48.3890    1.7100    1.8200    2.3600    0.4680    2.2910  -29.2200
  3149.0000   13.0780   12.7420  3149.0000    0.0840  119.4310   52.1470   46.4560    1.8000    1.9000    2.2200    0.4760    2.3030  -29.2600
  3149.5000   13.1230   12.8300  3149.5000    0.0740  105.6830   50.5450   42.8020    1.9000    2.0000    2.1000    0.4840    2.2940  -31.3200
  3150.0000   13.1600   12.9180  3150.0000    0.0830   97.8810   48.8730   39.1510    2.0000    2.1000    2.5200    0.4840    2.3050  -33.3500
  3150.5000   13.1970   13.0090  3150.5000    0.0900   91.6370   45.1090   37.0390    2.1100    2.2100    2.9700    0.4900    2.3160  -35.3700
  3151.0000   13.2340   13.0270  3151.0000    0.0790   95.0060   40.9240   36.2990    2.2300    2.3200    3.7700    0.5000    2.3330  -37.3300
  3151.5000   13.2710   13.0230  3151.5000    0.0530   98.0300   36.2360   36.3960    2.3500    2.4500    3.6800    0.4720    2.3530  -36.7100
  3152.0000   13.3110   13.0180  3152.0000    0.0300  101.0540   32.3100   36.7330    2.4800    2.5700    3.5100    0.4210    2.3720  -30.5600
  3152.5000   13.4470   13.0140  3152.5000    0.0230  103.6980   31.9980   37.0730    2.6200    2.7000    3.3500    0.3710    2.3900  -24.5200
  3153.0000   13.5920   13.0100  3153.0000    0.0260  103.8870   33.0740   37.3870    2.7000    2.8300    3.2600    0.3370    2.4000  -19.0800
  3153.5000   13.6550   13.0050  3153.5000    0.0340  102.9920   34.1800   37.5610    2.8200    2.8800    3.3100    0.3280    2.4210  -17.3600
  3154.0000   13.6650   13.0010  3154.0000    0.0410  101.4530   35.2900   37.7320    2.8000    2.9400    3.3500    0.3360    2.4430  -17.2500
  3154.5000   13.6750   12.9970  3154.5000    0.0370   99.5050   36.4840   37.8440    2.7800    3.0000    3.3300    0.3490    2.4160  -19.3300
  3155.0000   13.6850   12.9920  3155.0000    0.0270   97.2920   38.0980   40.6520    2.7200    2.9400    3.3000    0.3630    2.4180  -21.5000
  3155.5000   13.6900   12.9480  3155.5000    0.0260  100.9540   39.6890   44.7810    2.6300    2.8700    3.2900    0.3760    2.4050  -23.6400
  3156.0000   13.6900   12.8540  3156.0000    0.0280  108.0610   41.2600   48.9910    2.5500    2.8000    3.5600    0.3820    2.3940  -25.7400
  3156.5000   13.6900   12.7610  3156.5000    0.0220  118.2120   42.8840   53.2210    2.3900    2.6800    3.7400    0.3860    2.3880  -26.8000
  3157.0000   13.6900   12.7520  3157.0000    0.0260  128.3630   46.5760   56.5110    2.2600    2.5100    3.1300    0.3910    2.3940  -27.6900
  3157.5000   13.6900   12.7560  3157.5000    0.0420  132.5620   52.0110   58.9570    2.1300    2.3600    2.6600    0.4080    2.4000  -28.5800
  3158.0000   13.6900   12.7590  3158.0000    0.0580  131.4980   57.4240   60.6420    2.0100    2.2100    2.1800    0.4290    2.3760  -29.4800
  3158.5000   13.7290   12.7620  3158.5000    0.0670  131.0790   59.3410   62.2540    1.9000    2.0700    2.2700    0.4810    2.3510  -30.3800
  3159.0000   13.7720   12.7650  3159.0000    0.0420  131.7770   60.1380   60.8250    1.7900    1.9400    2.4600    0.5060    2.3110  -31.2700
  3159.5000   13.8150   12.7690  3159.5000    0.0520  132.5080   59.7520   58.5160    1.6700    1.8600    2.4300    0.5220    2.3060  -32.1700
  3160.0000   13.8530   12.8380  3160.0000    0.0640  129.4160   59.4040   56.1850    1.7100    1.8300    2.3900    0.5030    2.3230  -33.0900
  3160.5000   13.8650   13.0250  3160.5000    0.0760  125.4810   58.1950   53.8600    1.7500    1.8000    2.3400    0.4860    2.3360  -33.7800
  3161.0000   13.8770   13.2110  3161.0000    0.0850  121.5260   56.4160   51.6640    1.8000    1.8800    2.3000    0.4730    2.3440  -30.3600
  3161.5000   13.8940   13.3820  3161.5000    0.0460  117.5810   54.6240   49.4680    1.8400    1.9600    2.4200    0.4790    2.3280  -26.8600
  3162.0000   14.0100   13.2760  3162.0000    0.0220  113.9410   52.7570   47.2730    1.8900    2.0500    2.5400    0.4870    2.2950  -23.3700
  3162.5000   14.1290   13.2030  3162.5000    0.0190  112.4050   50.4730   45.6760    1.9400    2.1300    2.6700    0.4790    2.2890  -19.9000
  3163.0000   14.2450   13.1900  3163.0000    0.0290  110.9710   48.2190   44.8520    1.9800    2.2300    2.8000    0.4590    2.3220  -16.4700
  3163.5000   14.1670   13.1850  3163.5000    0.0400  110.5870   45.9650   44.0210    2.0400    2.3200    2.9200    0.4300    2.3450  -14.3400
  3164.0000   13.9780   13.1810  3164.0000    0.0460  111.1580   43.6960   43.1940    2.1000    2.3700    2.9000    0.4140    2.3690  -15.3300
  3164.5000   13.9140   13.1770  3164.5000    0.0480  111.7290   41.3620   42.2920    2.1700    2.4000    2.8800    0.4030    2.3880  -16.2900
  3165.0000   13.9320   13.1720  3165.0000    0.0420  111.5770   40.2470   41.0660    2.2300    2.4300    2.8600    0.3980    2.4010  -15.5800
  3165.5000   13.9580   13.1680  3165.5000    0.0340  110.0380   39.8650   39.8100    2.3000    2.4500    2.8400    0.3940    2.3960  -14.6000
  3166.0000   13.9850   13.1640  3166.0000    0.0360  107.9100   40.0580   40.0210    2.3900    2.4800    2.8200    0.3810    2.4080  -17.0700
  3166.5000   13.9470   13.1600  3166.5000    0.0460  105.4270   40.2690   40.3250    2.3500    2.5000    2.8800    0.3710    2.4160  -19.7100
  3167.0000   13.8920   13.1550  3167.0000    0.0460  109.0180   39.4720   40.6890    2.3100    2.4500    2.9800    0.3840    2.4050  -22.3400
  3167.5000   13.8990   13.1500  3167.5000    0.0320  113.3420   37.9040   42.7570    2.2600    2.4100    3.0900    0.3940    2.3910  -24.9600
