~Version Information Section
 VERS.      2.0         :CWLS LOG ASCII STANDARD - VERSION 2.0
 WRAP.      NO          :SINGLE LINE PER DEPTH STEP
 CREA.      8/24/2011 12:45:27
~Well Information Section
#MNEM.UNIT                      VALUE/NAME                 DESCRIPTION
#----.----     ----------------------------------   --------------------
 STRT .FT           1040.0000                         :START DEPTH
 STOP .FT          11320.0000                         :STOP DEPTH
 STEP .FT              0.5000                         :STEP VALUE
 NULL .             -999.0000                         :NULL VALUE
 SRVC .          SCH                                  :Service Company/Logging company
 DATE .          08/24/2011                           :LAS file Creation Date
 WELL .          PENOBSCOT B-41                       :Well Name
 COMP .          SHELL CANADARESOURCES LIMITED        :Company
 FLD  .          WILDCAT                              :Field
 STATE.          CALAGARY, ALBERTA                    :State
 COUNT.          CANADA                               :Country
 LOC  .          44'10'02; N LAT|60'06'32; W LO       :Location
 LATI .          0                                    :Latitude/Northing
 LONG .          0                                    :Longitude/Easting
 PDAT .          UNK                                  :Permanent Datum
 EPDAT.          0.0000                               :Elevation of Permanent Datum
 KB   .          99.0000                              :KB Elevation
 GL   .          -387.0000                            :GL Elevation
 RWS  .          0                                    :Def_Rw
 WST  .          0                                    :Def_Rwt
 ERT  .          0.0000                               :RT Elevation
 CNTY .          NOVA SCOTIA SHELF                    :County
~Curve Information Section
#MNEM  .UNIT         CURVE DESCRIPTION
#----  .----         -------------------------
 DEPTH .FT           :1 Depth
 CALD  .IN           :2 Caliper    Density Caliper
 CALS  .IN           :3 Caliper    DT Caliper
 DEPTH .FT           :4 Depth
 DRHO  .G/C3         :5 Drho       Delta Rho
 DT    .US/FT        :6 Sonic      Delta-T
 GRD   .GAPI         :7 GammaRay   Gamma Ray Density
 GRS   .GAPI         :8 GammaRay   Gamma Ray Sonic
 ILD   .OHMM         :9 DeepRes    Deep Induction Standard Processed Resistivity
 ILM   .OHMM         :10 MedRes    Medium Induction Standard Processed Resistivity
 LL8   .OHMM         :11 LL8       Shallow - Latero-Log 8
 NPHISS.V/V          :12 Neutron    Neutron Porosity – Ss Mtx
 RHOB  .G/C3         :13 Density    Bulk Density
 SP    .MV           :14 SP         Spontaneous Potential
~Parameter Information Section
#MNEM.UNIT                      VALUE                       DESCRIPTION
#----.----     ----------------------------------   --------------------
~A  DEPTH     CALD      CALS      DEPTH      DRHO       DT        GRD       GRS       ILD       ILM       LL8     NPHISS     RHOB       SP    
# ...
  5156.0000   11.6400   12.1330  5156.0000    0.0630  106.9130   62.4190   67.7760    0.3800    0.5800    1.1500    0.4130    2.1900  -88.3100
  5156.5000   11.6000   12.1380  5156.5000    0.0450  107.3380   65.0750   72.6000    0.3900    0.6000    1.2800    0.3990    2.1760  -81.2900
  5157.0000   11.6530   12.1430  5157.0000    0.0290  107.7640   69.2050   77.4760    0.4100    0.6100    1.4600    0.3920    2.1700  -74.8200
  5157.5000   11.7120   12.1470  5157.5000    0.0320  107.7070   73.2640   81.1090    0.4400    0.6600    1.6600    0.3990    2.2010  -68.0300
  5158.0000   11.8060   12.1330  5158.0000    0.0330  107.4040   77.0530   84.1210    0.5000    0.7400    1.7400    0.4020    2.2220  -57.7000
  5158.5000   11.8960   12.0980  5158.5000    0.0280  105.7280   79.5980   86.9490    0.6000    0.8600    1.7900    0.3960    2.2460  -43.1700
  5159.0000   11.9870   12.0620  5159.0000    0.0420  104.0510   82.0640   87.1450    0.7200    1.0500    1.8500    0.3870    2.2790  -28.5300
  5159.5000   12.0150   12.0260  5159.5000    0.0580  102.7680   84.1500   85.4270    0.8700    1.2000    2.0700    0.3920    2.3150  -16.6600
  5160.0000   11.9900   11.9930  5160.0000    0.0780  103.4940   86.3880   83.6010    1.0400    1.3500    2.4100    0.4020    2.3830  -11.7900
  5160.5000   11.9630   12.0970  5160.5000    0.0850  104.1320   85.9030   84.9140    1.2500    1.5200    2.7600    0.4110    2.3770   -6.7100
  5161.0000   11.9340   12.2130  5161.0000    0.0670  104.6370   85.7500   87.1340    1.5100    1.7000    2.5800    0.4170    2.3990   -1.6100
  5161.5000   11.9870   12.3280  5161.5000    0.0790  105.1490   87.6630   89.3710    1.6600    1.8100    2.3900    0.4110    2.4270   -0.2800
  5162.0000   12.0620   12.4440  5162.0000    0.0940  104.6360   86.8100   91.1500    1.7800    1.9200    2.4100    0.4080    2.4230    0.8700
  5162.5000   12.1370   12.4530  5162.5000    0.1090  103.9170   85.8260   91.5310    1.9000    2.0500    2.4500    0.4230    2.4340    0.9700
  5163.0000   12.2080   12.3930  5163.0000    0.1240  103.2440   85.2090   89.0510    1.9500    2.0600    2.4800    0.4340    2.4420    0.2300
  5163.5000   12.1950   12.3330  5163.5000    0.1370  101.0080   86.1460   87.1940    2.0100    2.0800    2.4700    0.4440    2.4260   -0.5400
  5164.0000   12.2340   12.2720  5164.0000    0.1210   98.9050   86.3820   87.7150    1.9400    2.1000    2.4600    0.4500    2.4110   -2.8100
  5164.5000   12.3040   12.2100  5164.5000    0.1080   97.9740   83.9480   86.4990    1.8600    2.0500    2.4600    0.4370    2.4100   -7.8000
  5165.0000   12.1700   12.2150  5165.0000    0.1120   97.7120   81.8180   85.7590    1.7900    1.9700    3.0500    0.4290    2.4090  -12.8200
  5165.5000   12.0030   12.2500  5165.5000    0.0910  101.7050   82.5200   85.0780    1.7100    1.8800    3.4400    0.4250    2.3790  -13.3500
  5166.0000   11.9140   12.2320  5166.0000    0.0670  113.9110   82.1230   81.1280    1.6400    1.8000    2.8800    0.4320    2.3650  -12.8400
  5166.5000   11.8790   12.1520  5166.5000    0.0640  108.5650   80.3840   77.3290    1.5800    1.7300    2.4900    0.4340    2.3570  -17.8300
  5167.0000   12.0500   12.1340  5167.0000    0.0860  100.6650   78.6190   73.7130    1.5100    1.6700    2.2200    0.4350    2.3890  -23.8500
  5167.5000   12.0530   12.1410  5167.5000    0.0770  101.7100   75.9560   72.5800    1.4500    1.6500    2.5100    0.4440    2.3750  -29.8500
  5168.0000   12.0020   12.1500  5168.0000    0.0630  105.5260   72.9060   71.3720    1.3800    1.6300    2.7600    0.4540    2.3590  -33.7400
  5168.5000   11.9770   12.1850  5168.5000    0.0480  113.9580   73.6730   70.0050    1.4300    1.6700    3.0400    0.4660    2.3780  -30.4800
  5169.0000   11.9590   12.2230  5169.0000    0.0470  116.6370   74.4260   64.6440    1.4800    1.7000    3.2000    0.4410    2.3720  -27.4000
  5169.5000   11.9420   12.2610  5169.5000    0.0460  104.1100   73.3710   59.3450    1.5400    1.7600    2.7300    0.4110    2.3930  -24.3300
  5170.0000   11.9690   12.2990  5170.0000    0.0400   91.2990   70.9250   56.9540    1.6000    1.9300    4.2600    0.3960    2.3990  -21.2600
  5170.5000   12.0780   12.3370  5170.5000    0.0250   78.4880   65.9300   58.4980    1.6700    2.2000    8.2700    0.3740    2.4110  -18.1700
  5171.0000   12.1860   12.3750  5171.0000    0.0090   69.3150   60.9910   63.7350    1.7700    2.1500   16.0600    0.3300    2.4510  -15.0200
  5171.5000   12.2830   12.4140  5171.5000    0.0040   84.6770   55.9320   70.7070    1.7500    2.0600   24.7900    0.2870    2.4860  -13.8200
  5172.0000   12.1460   12.4460  5172.0000    0.0060   96.6410   54.9690   77.6670    1.7200    1.9700    9.0400    0.2310    2.5030  -10.7200
  5172.5000   12.0000   12.3540  5172.5000    0.0190  103.1400   62.8470   83.6050    1.6900    1.8900    4.2300    0.2690    2.5190   -5.8800
  5173.0000   11.8550   12.2580  5173.0000    0.0310  104.4350   72.7490   84.3010    1.6600    1.8100    1.9200    0.3210    2.4860   -1.9900
  5173.5000   11.7560   12.1740  5173.5000    0.0470  100.9880   81.0150   82.5400    1.6300    1.8100    2.3700    0.3730    2.4480   -7.9900
  5174.0000   11.9160   12.2470  5174.0000    0.0700   98.7820   84.8150   83.4220    1.6000    1.8000    2.3300    0.4200    2.4010  -15.4600
  5174.5000   11.7480   12.3220  5174.5000    0.0880   99.2410   83.1600   84.6990    1.5800    1.7900    2.7300    0.4460    2.3550  -22.0300
  5175.0000   11.7340   12.3960  5175.0000    0.0640  103.9880   80.6180   84.4590    1.5500    1.7700    3.3500    0.4310    2.3270  -17.4400
  5175.5000   11.8290   12.4730  5175.5000    0.0530  108.7350   79.4880   80.5180    1.5200    1.7200    2.8700    0.4060    2.3230  -11.8600
  5176.0000   11.8470   12.4410  5176.0000    0.0700  110.7070   79.4960   76.1480    1.4800    1.6900    2.4600    0.4120    2.3560   -6.3100
  5176.5000   12.1740   12.3750  5176.5000    0.0920  112.3710   78.1920   71.7460    1.4400    1.6900    2.1000    0.4220    2.3800   -1.0700
  5177.0000   12.5560   12.3070  5177.0000    0.1200  109.9310   76.8990   69.4430    1.3900    1.6900    1.8700    0.4320    2.3920   -0.5400
  5177.5000   12.7770   12.2390  5177.5000    0.1520  106.4190   75.9000   68.7720    1.3400    1.6400    2.2400    0.4410    2.4020   -2.4000
  5178.0000   12.4160   12.1720  5178.0000    0.1770  104.7700   75.4940   67.9380    1.2600    1.5200    2.1600    0.4510    2.3710  -12.9000
  5178.5000   12.2500   12.1320  5178.5000    0.1570  103.2270   74.6520   66.1060    1.1000    1.3800    2.0500    0.4580    2.3310  -24.5600
  5179.0000   12.0880   12.1400  5179.0000    0.1110  101.9740   71.6730   65.5310    0.9600    1.2500    1.9400    0.4410    2.3380  -36.2000
  5179.5000   11.9530   12.1470  5179.5000    0.0590  103.0520   68.7070   66.9990    0.8400    1.1800    1.8300    0.4280    2.3170  -41.3900
  5180.0000   11.8620   12.1550  5180.0000    0.0540  106.1330   65.6870   66.7160    0.7300    1.1100    1.7800    0.4160    2.3310  -36.0400
  5180.5000   11.7710   12.1620  5180.5000    0.0620  108.2970   66.8780   66.6120    0.6100    1.0300    2.0500    0.4100    2.3480  -33.1100
  5181.0000   11.6820   12.1700  5181.0000    0.0710  108.6040   68.8900   67.5260    0.6300    0.8700    2.2000    0.4030    2.3590  -45.8900
  5181.5000   11.7000   12.1770  5181.5000    0.0790  107.0380   67.6550   70.5670    0.6400    0.7600    1.4700    0.4140    2.3670  -57.5700
  5182.0000   11.8630   12.1840  5182.0000    0.0830  104.8320   65.9170   76.4490    0.6600    0.8000    1.1300    0.4280    2.3430  -61.9400
  5182.5000   11.7470   12.1920  5182.5000    0.0880  102.6490   66.4120   82.2320    0.6800    0.8600    1.4700    0.4440    2.3180  -44.4400
  5183.0000   11.5160   12.1990  5183.0000    0.0860  101.0860   69.7780   83.8180    0.7000    0.9400    1.8500    0.4330    2.2950  -28.1500
  5183.5000   11.5410   12.2060  5183.5000    0.0610   99.5380   73.5490   84.8330    0.7900    1.0500    2.0600    0.4200    2.2990  -13.8400
