~Version Information Section
 VERS.      2.0         :CWLS LOG ASCII STANDARD - VERSION 2.0
 WRAP.      NO          :SINGLE LINE PER DEPTH STEP
 CREA.      8/24/2011 12:45:27
~Well Information Section
#MNEM.UNIT                      VALUE/NAME                 DESCRIPTION
#----.----     ----------------------------------   --------------------
 STRT .FT           1040.0000                         :START DEPTH
 STOP .FT          11320.0000                         :STOP DEPTH
 STEP .FT              0.5000                         :STEP VALUE
 NULL .             -999.0000                         :NULL VALUE
 SRVC .          SCH                                  :Service Company/Logging company
 DATE .          08/24/2011                           :LAS file Creation Date
 WELL .          PENOBSCOT B-41                       :Well Name
 COMP .          SHELL CANADARESOURCES LIMITED        :Company
 FLD  .          WILDCAT                              :Field
 STATE.          CALAGARY, ALBERTA                    :State
 COUNT.          CANADA                               :Country
 LOC  .          44'10'02; N LAT|60'06'32; W LO       :Location
 LATI .          0                                    :Latitude/Northing
 LONG .          0                                    :Longitude/Easting
 PDAT .          UNK                                  :Permanent Datum
 EPDAT.          0.0000                               :Elevation of Permanent Datum
 KB   .          99.0000                              :KB Elevation
 GL   .          -387.0000                            :GL Elevation
 RWS  .          0                                    :Def_Rw
 WST  .          0                                    :Def_Rwt
 ERT  .          0.0000                               :RT Elevation
 CNTY .          NOVA SCOTIA SHELF                    :County
~Curve Information Section
#MNEM  .UNIT         CURVE DESCRIPTION
#----  .----         -------------------------
 DEPTH .FT           :1 Depth
 CALD  .IN           :2 Caliper    Density Caliper
 CALS  .IN           :3 Caliper    DT Caliper
 DEPTH .FT           :4 Depth
 DRHO  .G/C3         :5 Drho       Delta Rho
 DT    .US/FT        :6 Sonic      Delta-T
 GRD   .GAPI         :7 GammaRay   Gamma Ray Density
 GRS   .GAPI         :8 GammaRay   Gamma Ray Sonic
 ILD   .OHMM         :9 DeepRes    Deep Induction Standard Processed Resistivity
 ILM   .OHMM         :10 MedRes    Medium Induction Standard Processed Resistivity
 LL8   .OHMM         :11 LL8       Shallow - Latero-Log 8
 NPHISS.V/V          :12 Neutron    Neutron Porosity – Ss Mtx
 RHOB  .G/C3         :13 Density    Bulk Density
 SP    .MV           :14 SP         Spontaneous Potential
~Parameter Information Section
#MNEM.UNIT                      VALUE                       DESCRIPTION
#----.----     ----------------------------------   --------------------
~A  DEPTH     CALD      CALS      DEPTH      DRHO       DT        GRD       GRS       ILD       ILM       LL8     NPHISS     RHOB       SP    
# ...
  3812.0000   12.4950   12.5450  3812.0000    0.0440  123.9890   84.1610   73.4830    1.1600    1.3600    1.6700    0.5090    2.2250  -27.3500
  3812.5000   12.5050   12.5270  3812.5000    0.0510  124.0500   82.6070   75.4950    1.1400    1.3700    1.7200    0.5140    2.2220  -25.7900
  3813.0000   12.5590   12.4820  3813.0000    0.0520  124.3790   80.8400   77.3920    1.1500    1.3700    1.7000    0.5180    2.2290  -28.3400
  3813.5000   12.7000   12.4360  3813.5000    0.0490  124.1630   79.1080   78.8090    1.1500    1.3700    1.6800    0.5370    2.2260  -31.7700
  3814.0000   12.7480   12.3910  3814.0000    0.0780  123.0560   78.7140   76.2480    1.1600    1.3800    1.6500    0.5600    2.2420  -32.9000
  3814.5000   12.6270   12.3450  3814.5000    0.0880  121.9400   78.2360   73.7130    1.1700    1.3800    1.6400    0.5500    2.2020  -33.5600
  3815.0000   12.5140   12.3000  3815.0000    0.0340  120.8360   77.0270   71.6570    1.1800    1.3900    1.9900    0.5380    2.1640  -34.1200
  3815.5000   12.5090   12.2710  3815.5000    0.0230  118.6150   75.8240   72.9200    1.1800    1.4000    1.9700    0.5400    2.1920  -38.2700
  3816.0000   12.5100   12.2760  3816.0000    0.0340  116.1370   74.6260   73.6370    1.1900    1.4000    1.9400    0.5420    2.2280  -42.8600
  3816.5000   12.5110   12.2800  3816.5000    0.0380  113.6490   73.4430   71.3350    1.2000    1.4100    2.0300    0.5300    2.2370  -47.4700
  3817.0000   12.4660   12.2840  3817.0000    0.0510  111.2800   73.3880   69.7330    1.2100    1.3900    2.1800    0.5160    2.2360  -52.0700
  3817.5000   12.4130   12.2880  3817.5000    0.0400  112.0610   73.9760   71.9160    1.2100    1.3800    2.3200    0.5230    2.2430  -56.5700
  3818.0000   12.3600   12.3380  3818.0000    0.0320  112.5950   73.3150   74.0540    1.2200    1.3700    2.2700    0.5310    2.2620  -59.0200
  3818.5000   12.3060   12.4190  3818.5000    0.0390  112.8680   72.8500   76.1640    1.2300    1.3800    2.2200    0.5350    2.2860  -51.0800
  3819.0000   12.3520   12.5010  3819.0000    0.0420  113.4030   74.8560   77.5590    1.2400    1.3900    2.1300    0.5160    2.2930  -44.5800
  3819.5000   12.4410   12.5820  3819.5000    0.0350  114.6190   76.8620   75.6500    1.2200    1.4000    2.0100    0.5040    2.2330  -38.0600
  3820.0000   12.5310   12.6260  3820.0000    0.0280  118.0510   78.8530   73.8210    1.2100    1.4100    1.9000    0.4970    2.2260  -31.6100
  3820.5000   12.6210   12.6000  3820.5000    0.0240  121.7520   80.8420   72.9950    1.1900    1.3800    1.7800    0.4930    2.2360  -27.9400
  3821.0000   12.7120   12.5760  3821.0000    0.0270  125.4540   82.8340   73.6030    1.1700    1.3600    1.6700    0.5050    2.2350  -29.0700
  3821.5000   12.7960   12.5510  3821.5000    0.0300  128.6010   84.9140   73.4430    1.1500    1.3400    1.5600    0.5190    2.2310  -30.1100
  3822.0000   12.8230   12.5270  3822.0000    0.0330  130.6050   84.4100   72.2610    1.1400    1.3200    1.5000    0.5260    2.2130  -29.9600
  3822.5000   12.8510   12.5020  3822.5000    0.0400  132.6090   83.1410   71.0550    1.1200    1.3000    1.5400    0.5200    2.1840  -28.0200
  3823.0000   12.8660   12.4770  3823.0000    0.0620  136.5020   81.5730   72.7500    1.1000    1.2900    1.5800    0.5140    2.1990  -26.1100
  3823.5000   12.8540   12.4530  3823.5000    0.0800  140.5460   78.5430   74.8350    1.0900    1.2800    1.6100    0.5320    2.2040  -24.1700
  3824.0000   12.8430   12.4580  3824.0000    0.0520  139.3550   75.4950   76.2600    1.1200    1.2600    1.6400    0.5500    2.2100  -22.5100
  3824.5000   12.8270   12.4670  3824.5000    0.0460  128.9530   72.5270   75.6840    1.1400    1.2700    1.6600    0.5680    2.2440  -23.9400
  3825.0000   12.6860   12.4760  3825.0000    0.0500  118.3410   71.6960   74.1790    1.1600    1.2800    1.4800    0.5860    2.2790  -25.3800
  3825.5000   12.7010   12.4860  3825.5000    0.0510  113.0650   70.8890   71.5850    1.1800    1.3500    1.3800    0.6020    2.2910  -26.4900
  3826.0000   12.6760   12.4780  3826.0000    0.0260  115.4250   68.4400   68.9920    1.1600    1.4500    2.6900    0.6270    2.2960  -26.7600
  3826.5000   12.4500   12.4550  3826.5000    0.0010  123.0590   65.9390   70.3380    1.1400    1.4200    2.3800    0.6090    2.3320  -27.0400
  3827.0000   12.5880   12.4300  3827.0000   -0.0190  129.7320   63.4010   72.0870    1.1600    1.3900    1.8900    0.5990    2.4140  -27.3300
  3827.5000   12.7610   12.3490  3827.5000    0.0140  128.0390   63.5550   71.4470    1.1900    1.3600    1.3600    0.5610    2.4650  -28.3600
  3828.0000   12.7770   12.2600  3828.0000    0.0450  123.0550   65.0450   70.0980    1.2100    1.3700    1.4800    0.5530    2.3980  -33.6500
  3828.5000   12.7110   12.1760  3828.5000    0.0530  117.6590   65.1480   68.7260    1.2400    1.3900    1.7300    0.5670    2.2610  -38.9300
  3829.0000   12.6520   12.2650  3829.0000    0.0570  113.3430   65.0390   67.3110    1.2100    1.4100    2.0200    0.5720    2.2100  -44.2200
  3829.5000   12.4270   12.3550  3829.5000    0.0620  112.7560   65.1760   67.8000    1.1900    1.4000    2.2500    0.5370    2.2010  -49.2800
  3830.0000   12.1780   12.3710  3830.0000    0.0470  113.1420   66.1490   68.7740    1.1600    1.4000    2.3000    0.5050    2.1940  -49.8000
  3830.5000   12.2910   12.3890  3830.5000    0.0400  113.5620   67.1080   69.7530    1.1400    1.3900    2.0500    0.4720    2.2100  -49.0300
  3831.0000   12.4050   12.4070  3831.0000    0.0530  115.1380   68.4410   70.4620    1.1200    1.3800    1.9200    0.4320    2.2510  -47.6500
  3831.5000   12.5180   12.3830  3831.5000    0.0690  117.1980   69.5910   69.9620    1.0900    1.3500    1.9900    0.4370    2.2750  -45.4600
  3832.0000   12.5220   12.3500  3832.0000    0.0570  116.5970   67.9830   68.1950    1.0700    1.2900    2.0400    0.4460    2.2880  -43.7300
  3832.5000   12.4510   12.3160  3832.5000    0.0390  113.4750   66.3970   66.4500    1.0600    1.2400    2.0600    0.4550    2.2680  -46.5400
  3833.0000   12.4750   12.2820  3833.0000    0.0340  109.6170   64.8150   64.6690    1.0600    1.2000    1.6700    0.4640    2.2610  -53.0100
  3833.5000   12.4640   12.2820  3833.5000    0.0350  107.3120   63.2410   64.8310    1.0600    1.2300    1.8500    0.4720    2.2570  -59.3500
  3834.0000   12.3880   12.2990  3834.0000    0.0350  108.8000   62.0100   66.0200    1.0500    1.2500    1.9900    0.4740    2.2520  -64.2600
  3834.5000   12.3140   12.3170  3834.5000    0.0300  113.3830   62.6570   67.2390    1.0500    1.2700    2.1600    0.4680    2.2420  -57.3200
  3835.0000   12.2390   12.3250  3835.0000    0.0260  117.5460   63.5230   67.9920    1.0000    1.3000    2.2400    0.4520    2.2390  -50.4100
  3835.5000   12.2500   12.3030  3835.5000    0.0330  119.6150   65.5800   68.5630    0.9100    1.2800    1.9900    0.4360    2.2660  -43.5900
  3836.0000   12.3120   12.2810  3836.0000    0.0350  120.8890   67.6870   66.5810    0.8300    1.2600    1.6400    0.4200    2.2750  -38.3500
  3836.5000   12.3120   12.2600  3836.5000    0.0370  119.8940   65.6260   63.1590    0.7800    1.1400    1.6400    0.4150    2.2840  -49.1800
  3837.0000   12.2210   12.2380  3837.0000    0.0400  115.1390   62.7280   55.5620    0.7500    1.0300    1.6400    0.4230    2.2790  -58.9900
  3837.5000   12.2960   12.2150  3837.5000    0.0490  111.1740   57.7760   48.2940    0.7300    0.9300    1.3700    0.4290    2.2660  -68.7700
  3838.0000   12.3850   12.2420  3838.0000    0.0410  103.2610   52.8480   46.0130    0.7200    0.9000    1.2500    0.4350    2.2510  -78.2500
  3838.5000   12.3220   12.2880  3838.5000    0.0430   90.9510   47.9300   44.3230    0.7200    0.9500    2.0100    0.4340    2.2410  -82.0200
  3839.0000   12.2570   12.3340  3839.0000    0.0450   73.5420   44.1270   42.8560    0.7200    1.0200    2.7900    0.4290    2.2770  -84.5100
  3839.5000   12.2150   12.3790  3839.5000    0.0280   65.0500   40.8670   42.9230    0.7500    1.1200    4.2100    0.3800    2.3170  -83.0400
